{
"type": "FeatureCollection",
"crs": { "type": "name", "properties": { "name": "urn:ogc:def:crs:EPSG::31370" } },
"features": [
{ "type": "Feature", "properties": { "Adres": "Lispersteenweg", "Locatie": "Hoogspanningspyloon", "PostcodeGemeente": "2530 Boechout", "Eigenaar1": "Orange Belgium: 30674A1_1", "Eigenaar2": "Proximus: 03PRB_04", "Eigenaar3": null, "X": 160258, "Y": 205712, "ID": 21002, "Longitude": 4.5153635640412499, "Latitude": 51.161332524022598, "Proximus": true, "Orange": true, "Telenet": false }, "geometry": { "type": "Point", "coordinates": [ 160258.0, 205712.0 ] } },
{ "type": "Feature", "properties": { "Adres": "Grote Baan 115", "Locatie": "Lambrecht Gebroeders BVBA", "PostcodeGemeente": "9310 Aalst", "Eigenaar1": "Telenet: _OV5397C", "Eigenaar2": "Orange Belgium: 357G1_2", "Eigenaar3": "Proximus: 53HDR_02", "X": 128474, "Y": 184046, "ID": 21003, "Longitude": 4.0622894895597597, "Latitude": 50.966272623285803, "Proximus": true, "Orange": true, "Telenet": true }, "geometry": { "type": "Point", "coordinates": [ 128474.0, 184046.0 ] } },
{ "type": "Feature", "properties": { "Adres": "Waterlose Steenweg 363 \/ Brugmannlaan 2", "Locatie": "", "PostcodeGemeente": "1060 Sint-Gillis", "Eigenaar1": "Telenet: _BX3061L", "Eigenaar2": "Orange Belgium: 31036B1_2", "Eigenaar3": "Proximus: 02CAM_00", "X": 148955, "Y": 168008, "ID": 21004, "Longitude": 4.3538920202649303, "Latitude": 50.8224987304094, "Proximus": true, "Orange": true, "Telenet": true }, "geometry": { "type": "Point", "coordinates": [ 148955.0, 168008.0 ] } },
{ "type": "Feature", "properties": { "Adres": "Leopold II Laan 85", "Locatie": "Sint-Niklaaskerk", "PostcodeGemeente": "8670 Koksijde", "Eigenaar1": "Telenet: _WV5820A", "Eigenaar2": "Orange Belgium: 32419O1_1", "Eigenaar3": "Proximus: 58OOS_01", "X": 31681, "Y": 202483, "ID": 21008, "Longitude": 2.6786963593569499, "Latitude": 51.120296819530502, "Proximus": true, "Orange": true, "Telenet": true }, "geometry": { "type": "Point", "coordinates": [ 31681.0, 202483.0 ] } },
{ "type": "Feature", "properties": { "Adres": "Oudenaardebaan 1", "Locatie": "Garage Lavaert", "PostcodeGemeente": "9690 Kluisbergen", "Eigenaar1": "Orange Belgium: 180G1_1", "Eigenaar2": "Proximus: 55BER_01", "Eigenaar3": null, "X": 89317, "Y": 165132, "ID": 21009, "Longitude": 3.5080229809624299, "Latitude": 50.793485901093099, "Proximus": true, "Orange": true, "Telenet": false }, "geometry": { "type": "Point", "coordinates": [ 89317.0, 165132.0 ] } },
{ "type": "Feature", "properties": { "Adres": "Bevel-Dorp 84 \/ Bevels Heerdplein", "Locatie": "Onze-Lieve-Vrouw Tenhemelopgenomenkerk", "PostcodeGemeente": "2560 Nijlen", "Eigenaar1": "Telenet: _AN0378A", "Eigenaar2": "Orange Belgium: 483A1_2", "Eigenaar3": "Proximus: 03BVL_01", "X": 171889, "Y": 203050, "ID": 21011, "Longitude": 4.6814669340978003, "Latitude": 51.137080837860999, "Proximus": true, "Orange": true, "Telenet": true }, "geometry": { "type": "Point", "coordinates": [ 171889.0, 203050.0 ] } },
{ "type": "Feature", "properties": { "Adres": "Steenweg op Gent 2", "Locatie": "", "PostcodeGemeente": "1080 Sint-Jans-Molenbeek", "Eigenaar1": "Telenet: _BX3180B", "Eigenaar2": "Orange Belgium: 316B1_1", "Eigenaar3": "Proximus: 02VLA_00", "X": 148018, "Y": 171434, "ID": 21013, "Longitude": 4.3405760165496003, "Latitude": 50.853294455137501, "Proximus": true, "Orange": true, "Telenet": true }, "geometry": { "type": "Point", "coordinates": [ 148018.0, 171434.0 ] } },
{ "type": "Feature", "properties": { "Adres": "Drie Bisdommenstraat", "Locatie": "", "PostcodeGemeente": "7783 Komen-Waasten", "Eigenaar1": "Telenet: _HT1803P", "Eigenaar2": "Orange Belgium: 280C1_4", "Eigenaar3": "Proximus: 56LBI_02", "X": 45318, "Y": 156399, "ID": 21018, "Longitude": 2.8865658226112001, "Latitude": 50.708748148267397, "Proximus": true, "Orange": true, "Telenet": true }, "geometry": { "type": "Point", "coordinates": [ 45318.0, 156399.0 ] } },
{ "type": "Feature", "properties": { "Adres": "Roskamstraat \/ Kattenheistraat", "Locatie": "", "PostcodeGemeente": "9100 Sint-Niklaas", "Eigenaar1": "Orange Belgium: 30003G1_1", "Eigenaar2": "Proximus: 03HEW_01", "Eigenaar3": null, "X": 133438, "Y": 202587, "ID": 21022, "Longitude": 4.1321142926693604, "Latitude": 51.1330981674488, "Proximus": true, "Orange": true, "Telenet": false }, "geometry": { "type": "Point", "coordinates": [ 133438.0, 202587.0 ] } },
{ "type": "Feature", "properties": { "Adres": "Sint-Godelievestraat 53", "Locatie": "Sint-Godelievekerk", "PostcodeGemeente": "8020 Oostkamp", "Eigenaar1": "Orange Belgium: 30667O1_1", "Eigenaar2": "Proximus: 50MRB_01", "Eigenaar3": null, "X": 72624, "Y": 206360, "ID": 21024, "Longitude": 3.26257769701474, "Latitude": 51.162069767114197, "Proximus": true, "Orange": true, "Telenet": false }, "geometry": { "type": "Point", "coordinates": [ 72624.0, 206360.0 ] } },
{ "type": "Feature", "properties": { "Adres": "E25", "Locatie": "Cockerill Sambre S.A. - Arcelor Mittal (Chertal)", "PostcodeGemeente": "4683 Oupeye", "Eigenaar1": "Orange Belgium: 154L1_7 \/ 30749L1_1", "Eigenaar2": "Proximus: 41CRT_01", "Eigenaar3": null, "X": 241127, "Y": 153519, "ID": 21030, "Longitude": 5.6582916991588599, "Latitude": 50.685128121542697, "Proximus": true, "Orange": true, "Telenet": false }, "geometry": { "type": "Point", "coordinates": [ 241127.0, 153519.0 ] } },
{ "type": "Feature", "properties": { "Adres": "Prins Albertstraat 33", "Locatie": "Solvay", "PostcodeGemeente": "1050 Elsene", "Eigenaar1": "Telenet: _BX3179B", "Eigenaar2": "Orange Belgium: 31109B1_4", "Eigenaar3": "Proximus: 02SLV_00", "X": 149535, "Y": 169330, "ID": 21046, "Longitude": 4.3621218240215898, "Latitude": 50.834383660428202, "Proximus": true, "Orange": true, "Telenet": true }, "geometry": { "type": "Point", "coordinates": [ 149535.0, 169330.0 ] } },
{ "type": "Feature", "properties": { "Adres": "Parc Industriel Sud 135 \/ Boulevard de l'Europe 135", "Locatie": "", "PostcodeGemeente": "1301 Wavre", "Eigenaar1": "Telenet: _BW4609B", "Eigenaar2": "Orange Belgium: 034W1_2", "Eigenaar3": "Proximus: 10WLI_01", "X": 165411, "Y": 154610, "ID": 21048, "Longitude": 4.58687461620534, "Latitude": 50.701851674498698, "Proximus": true, "Orange": true, "Telenet": true }, "geometry": { "type": "Point", "coordinates": [ 165411.0, 154610.0 ] } },
{ "type": "Feature", "properties": { "Adres": "Vijversstraat 1 \/ Kempische Steenweg 518", "Locatie": "Kiewit Sint-Lambertuskerk", "PostcodeGemeente": "3500 Hasselt", "Eigenaar1": "Orange Belgium: 30050H1_2", "Eigenaar2": "Proximus: 11KIW_01", "Eigenaar3": null, "X": 219245, "Y": 184121, "ID": 21049, "Longitude": 5.3544256782204203, "Latitude": 50.963209184134001, "Proximus": true, "Orange": true, "Telenet": false }, "geometry": { "type": "Point", "coordinates": [ 219245.0, 184121.0 ] } },
{ "type": "Feature", "properties": { "Adres": "Halveweg", "Locatie": "", "PostcodeGemeente": "3520 Zonhoven", "Eigenaar1": "Orange Belgium: 075H1_3", "Eigenaar2": "Proximus: 11HAV_01", "Eigenaar3": null, "X": 218750, "Y": 186879, "ID": 21050, "Longitude": 5.3478982730690001, "Latitude": 50.988057919410899, "Proximus": true, "Orange": true, "Telenet": false }, "geometry": { "type": "Point", "coordinates": [ 218750.0, 186879.0 ] } },
{ "type": "Feature", "properties": { "Adres": "Spalbeekstraat 53", "Locatie": "Voetbalveld K. Sporting Spalbeek", "PostcodeGemeente": "3510 Hasselt", "Eigenaar1": "Telenet: _LI2536B", "Eigenaar2": "Orange Belgium: 105H1_2", "Eigenaar3": "Proximus: 11SPA_02", "X": 210400, "Y": 182939, "ID": 21051, "Longitude": 5.22833437955875, "Latitude": 50.953573327020102, "Proximus": true, "Orange": true, "Telenet": true }, "geometry": { "type": "Point", "coordinates": [ 210400.0, 182939.0 ] } },
{ "type": "Feature", "properties": { "Adres": "Kastanjelaan", "Locatie": "Sint-Barbarakerk", "PostcodeGemeente": "3630 Maasmechelen", "Eigenaar1": "Orange Belgium: 30409H1_1", "Eigenaar2": "Proximus: 89MSM_00", "Eigenaar3": null, "X": 242502, "Y": 187929, "ID": 21052, "Longitude": 5.6863902346262503, "Latitude": 50.994191457550798, "Proximus": true, "Orange": true, "Telenet": false }, "geometry": { "type": "Point", "coordinates": [ 242502.0, 187929.0 ] } },
{ "type": "Feature", "properties": { "Adres": "Johannalaan 44", "Locatie": "ULB- b?timent sociologie", "PostcodeGemeente": "1050 Elsene", "Eigenaar1": "Orange Belgium: 1-32259-B1", "Eigenaar2": "Proximus: 02ULB_00", "Eigenaar3": null, "X": 150834, "Y": 167143, "ID": 21056, "Longitude": 4.3805566858722997, "Latitude": 50.814723110105099, "Proximus": true, "Orange": true, "Telenet": false }, "geometry": { "type": "Point", "coordinates": [ 150834.0, 167143.0 ] } },
{ "type": "Feature", "properties": { "Adres": "Haachtsesteenweg 226", "Locatie": "", "PostcodeGemeente": "1030 Schaarbeek", "Eigenaar1": "Orange Belgium: 150B1_1", "Eigenaar2": "Proximus: 02SSS_00", "Eigenaar3": null, "X": 150266, "Y": 172396, "ID": 21057, "Longitude": 4.3725012692713499, "Latitude": 50.861945430229802, "Proximus": true, "Orange": true, "Telenet": false }, "geometry": { "type": "Point", "coordinates": [ 150266.0, 172396.0 ] } },
{ "type": "Feature", "properties": { "Adres": "Steenweg op Gent 404", "Locatie": "", "PostcodeGemeente": "1080 Sint-Jans-Molenbeek", "Eigenaar1": "Orange Belgium: 31062B1_3 \/ 323B1_4", "Eigenaar2": "Proximus: 02OSS_03", "Eigenaar3": null, "X": 146487, "Y": 171913, "ID": 21060, "Longitude": 4.3188292496195499, "Latitude": 50.857593141798297, "Proximus": true, "Orange": true, "Telenet": false }, "geometry": { "type": "Point", "coordinates": [ 146487.0, 171913.0 ] } },
{ "type": "Feature", "properties": { "Adres": "Globelaan 76", "Locatie": "", "PostcodeGemeente": "1190 Vorst", "Eigenaar1": "Orange Belgium: 071B1_3", "Eigenaar2": "Proximus: 02VOR_00", "Eigenaar3": null, "X": 147111, "Y": 166169, "ID": 21062, "Longitude": 4.32773615952462, "Latitude": 50.805960890220398, "Proximus": true, "Orange": true, "Telenet": false }, "geometry": { "type": "Point", "coordinates": [ 147111.0, 166169.0 ] } },
{ "type": "Feature", "properties": { "Adres": "Ambiorixsquare 52", "Locatie": "", "PostcodeGemeente": "1000 Brussel", "Eigenaar1": "Telenet: _BX3156A", "Eigenaar2": "Orange Belgium: 157B1_4", "Eigenaar3": "Proximus: 02SQA_00", "X": 150945, "Y": 170815, "ID": 21063, "Longitude": 4.3821415432420396, "Latitude": 50.847732412625902, "Proximus": true, "Orange": true, "Telenet": true }, "geometry": { "type": "Point", "coordinates": [ 150945.0, 170815.0 ] } },
{ "type": "Feature", "properties": { "Adres": "Van Bovenstraat", "Locatie": "", "PostcodeGemeente": "7700 Moeskroen", "Eigenaar1": "Telenet: _HT1733D", "Eigenaar2": "Orange Belgium: 123C1_1", "Eigenaar3": "Proximus: 56LUI_02", "X": 71112, "Y": 158637, "ID": 21064, "Longitude": 3.2512327385397701, "Latitude": 50.732923232175402, "Proximus": true, "Orange": true, "Telenet": true }, "geometry": { "type": "Point", "coordinates": [ 71112.0, 158637.0 ] } },
{ "type": "Feature", "properties": { "Adres": "De Brulen \/ Voorheide", "Locatie": "Sint-Jozef Voorheidekerk", "PostcodeGemeente": "2370 Arendonk", "Eigenaar1": "Telenet: _AN0281B", "Eigenaar2": "Orange Belgium: 063A1_2", "Eigenaar3": "Proximus: 14VRH_01", "X": 200968, "Y": 225516, "ID": 21065, "Longitude": 5.1000812506573299, "Latitude": 51.337168377885703, "Proximus": true, "Orange": true, "Telenet": true }, "geometry": { "type": "Point", "coordinates": [ 200968.0, 225516.0 ] } },
{ "type": "Feature", "properties": { "Adres": "Onderrichtsstraat 65 \/ Tribunestraat 10", "Locatie": "", "PostcodeGemeente": "1000 Brussel", "Eigenaar1": "Telenet: _BX3102G", "Eigenaar2": "Orange Belgium: 30039B1_1", "Eigenaar3": "Proximus: 02PLS_01", "X": 149762, "Y": 170935, "ID": 21072, "Longitude": 4.3653431563047302, "Latitude": 50.848811882003702, "Proximus": true, "Orange": true, "Telenet": true }, "geometry": { "type": "Point", "coordinates": [ 149762.0, 170935.0 ] } },
{ "type": "Feature", "properties": { "Adres": "De Neckstraat 22", "Locatie": "Res. Victoria", "PostcodeGemeente": "1081 Koekelberg", "Eigenaar1": "Telenet: _BX3010D", "Eigenaar2": "Orange Belgium: 30011B1_1", "Eigenaar3": "Proximus: 02PSI_00", "X": 147292, "Y": 172763, "ID": 21073, "Longitude": 4.33025624219382, "Latitude": 50.865238489909302, "Proximus": true, "Orange": true, "Telenet": true }, "geometry": { "type": "Point", "coordinates": [ 147292.0, 172763.0 ] } },
{ "type": "Feature", "properties": { "Adres": "Beverenstraat 17", "Locatie": "", "PostcodeGemeente": "8540 Deerlijk", "Eigenaar1": "Telenet: _WV5801M", "Eigenaar2": "Orange Belgium: 139O1_4", "Eigenaar3": "Proximus: 56DEE_01", "X": 78277, "Y": 172056, "ID": 21079, "Longitude": 3.3501078796352601, "Latitude": 50.854468585329499, "Proximus": true, "Orange": true, "Telenet": true }, "geometry": { "type": "Point", "coordinates": [ 78277.0, 172056.0 ] } },
{ "type": "Feature", "properties": { "Adres": "Industriepark Klein Frankrijk 1", "Locatie": "Associated Weavers Europe N.V.", "PostcodeGemeente": "9600 Ronse", "Eigenaar1": "Telenet: _OV5347M", "Eigenaar2": "Orange Belgium: 209G1_1", "Eigenaar3": "Proximus: 55KFR_01", "X": 98593, "Y": 160196, "ID": 21080, "Longitude": 3.6402668503832998, "Latitude": 50.750007655077297, "Proximus": true, "Orange": true, "Telenet": true }, "geometry": { "type": "Point", "coordinates": [ 98593.0, 160196.0 ] } },
{ "type": "Feature", "properties": { "Adres": "Place des Anciens Combattants 3 \/ Rue de l'A?te", "Locatie": "Eglise Saint-Remy", "PostcodeGemeente": "4432 Ans", "Eigenaar1": "Orange Belgium: 388L1_1", "Eigenaar2": "Proximus: 41ALO_02", "Eigenaar3": null, "X": 230866, "Y": 152139, "ID": 21086, "Longitude": 5.5128080533243899, "Latitude": 50.674236247961801, "Proximus": true, "Orange": true, "Telenet": false }, "geometry": { "type": "Point", "coordinates": [ 230866.0, 152139.0 ] } },
{ "type": "Feature", "properties": { "Adres": "Vliegveldweg 17", "Locatie": "VRT Zendstation Egem", "PostcodeGemeente": "8740 Pittem", "Eigenaar1": "Telenet: _WV5638A", "Eigenaar2": "Orange Belgium: 32045O1_1", "Eigenaar3": "Proximus: 51BRT_00", "X": 70501, "Y": 190777, "ID": 21109, "Longitude": 3.2356318617088, "Latitude": 51.021725563448904, "Proximus": true, "Orange": true, "Telenet": true }, "geometry": { "type": "Point", "coordinates": [ 70501.0, 190777.0 ] } },
{ "type": "Feature", "properties": { "Adres": "Place des Sports 1 \/ Fond Jean P?ques 1", "Locatie": "Centre Sportif de Blocry", "PostcodeGemeente": "1348 Ottignies-Louvain-la-Neuve", "Eigenaar1": "Telenet: _BW4875P", "Eigenaar2": "Orange Belgium: 024W1_1", "Eigenaar3": "Proximus: 10RAP_00", "X": 166528, "Y": 151170, "ID": 21111, "Longitude": 4.60253282130759, "Latitude": 50.670896130878099, "Proximus": true, "Orange": true, "Telenet": true }, "geometry": { "type": "Point", "coordinates": [ 166528.0, 151170.0 ] } },
{ "type": "Feature", "properties": { "Adres": "Zarlardingeplein", "Locatie": "Onze-Lieve-Vrouwekerk", "PostcodeGemeente": "9500 Geraardsbergen", "Eigenaar1": "Telenet: _OV5212Q", "Eigenaar2": "Orange Belgium: C1-451-G1 & C1-32451-G1", "Eigenaar3": "Proximus: 54ZAR_02", "X": 111886, "Y": 161427, "ID": 21115, "Longitude": 3.82849858465875, "Latitude": 50.762094142366401, "Proximus": true, "Orange": true, "Telenet": true }, "geometry": { "type": "Point", "coordinates": [ 111886.0, 161427.0 ] } },
{ "type": "Feature", "properties": { "Adres": "Dorpsstraat 26", "Locatie": "", "PostcodeGemeente": "3830 Wellen", "Eigenaar1": "Telenet: _LI2539D", "Eigenaar2": "Orange Belgium: 097H1_1", "Eigenaar3": "Proximus: 12WEL_01", "X": 217991, "Y": 170582, "ID": 21116, "Longitude": 5.3340700163116299, "Latitude": 50.841661266301998, "Proximus": true, "Orange": true, "Telenet": true }, "geometry": { "type": "Point", "coordinates": [ 217991.0, 170582.0 ] } },
{ "type": "Feature", "properties": { "Adres": "Louizalaan 475", "Locatie": "", "PostcodeGemeente": "1050 Brussel", "Eigenaar1": "Telenet: _BX3053C", "Eigenaar2": "Orange Belgium: 069B1_2", "Eigenaar3": "Proximus: 02BCB_01", "X": 150164, "Y": 167418, "ID": 21117, "Longitude": 4.3710498045190498, "Latitude": 50.817195789294601, "Proximus": true, "Orange": true, "Telenet": true }, "geometry": { "type": "Point", "coordinates": [ 150164.0, 167418.0 ] } },
{ "type": "Feature", "properties": { "Adres": "Velle 123", "Locatie": "Sint-Jozefkerk", "PostcodeGemeente": "9140 Temse", "Eigenaar1": "Telenet: _OV5380A", "Eigenaar2": "Orange Belgium: 345G1_1", "Eigenaar3": "Proximus: 03VEL_01", "X": 138715, "Y": 205616, "ID": 21118, "Longitude": 4.2074092992497398, "Latitude": 51.160451435283598, "Proximus": true, "Orange": true, "Telenet": true }, "geometry": { "type": "Point", "coordinates": [ 138715.0, 205616.0 ] } },
{ "type": "Feature", "properties": { "Adres": "Venweg 7", "Locatie": "Grammen", "PostcodeGemeente": "3700 Tongeren", "Eigenaar1": "Orange Belgium: 086H1_5", "Eigenaar2": "Proximus: 12VRE_00", "Eigenaar3": null, "X": 229897, "Y": 161206, "ID": 21121, "Longitude": 5.5010580518122199, "Latitude": 50.755870477809999, "Proximus": true, "Orange": true, "Telenet": false }, "geometry": { "type": "Point", "coordinates": [ 229897.0, 161206.0 ] } },
{ "type": "Feature", "properties": { "Adres": "Leuerbroek 1014 \/ Weertersteenweg", "Locatie": "De Lijn", "PostcodeGemeente": "3640 Kinrooi", "Eigenaar1": "Telenet: _LI2611D", "Eigenaar2": "Orange Belgium: 021H1_2", "Eigenaar3": "Proximus: 89KIN_01", "X": 246681, "Y": 204196, "ID": 21124, "Longitude": 5.7502183283453103, "Latitude": 51.1397059737333, "Proximus": true, "Orange": true, "Telenet": true }, "geometry": { "type": "Point", "coordinates": [ 246681.0, 204196.0 ] } },
{ "type": "Feature", "properties": { "Adres": "Kerkstraat", "Locatie": "Onze-Lieve-Vrouw Hemelvaart Nieuwmoerkerk", "PostcodeGemeente": "2920 Kalmthout", "Eigenaar1": "Telenet: _AN0301G", "Eigenaar2": "Orange Belgium: 259A1_1", "Eigenaar3": "Proximus: 03NWR_01", "X": 160394, "Y": 235915, "ID": 21125, "Longitude": 4.5181794283032204, "Latitude": 51.432796873617001, "Proximus": true, "Orange": true, "Telenet": true }, "geometry": { "type": "Point", "coordinates": [ 160394.0, 235915.0 ] } },
{ "type": "Feature", "properties": { "Adres": "Agoralaan", "Locatie": "Limburgs Universitair Centrum", "PostcodeGemeente": "3590 Diepenbeek", "Eigenaar1": "Telenet: _LI2878P", "Eigenaar2": "Orange Belgium: 30160H1_1", "Eigenaar3": "Proximus: 11LUN_02", "X": 221977, "Y": 180059, "ID": 21126, "Longitude": 5.3925132687402799, "Latitude": 50.926365831307201, "Proximus": true, "Orange": true, "Telenet": true }, "geometry": { "type": "Point", "coordinates": [ 221977.0, 180059.0 ] } },
{ "type": "Feature", "properties": { "Adres": "Rue du Chenay 26 \/ Avenue Reine Astrid", "Locatie": "", "PostcodeGemeente": "4680 Oupeye", "Eigenaar1": "Orange Belgium: 099L1_1", "Eigenaar2": "Proximus: 41OUP_01", "Eigenaar3": null, "X": 239667, "Y": 156253, "ID": 21135, "Longitude": 5.6382966785965003, "Latitude": 50.709928988702998, "Proximus": true, "Orange": true, "Telenet": false }, "geometry": { "type": "Point", "coordinates": [ 239667.0, 156253.0 ] } },
{ "type": "Feature", "properties": { "Adres": "Leefdaal \/ Autoweg 12", "Locatie": "Sarens NV", "PostcodeGemeente": "1861 Meise", "Eigenaar1": "Telenet: _VB4024G", "Eigenaar2": "Orange Belgium: 408F1_1", "Eigenaar3": "Proximus: 52SAR_00", "X": 146243, "Y": 186641, "ID": 21145, "Longitude": 4.3152141023536403, "Latitude": 50.9899858304261, "Proximus": true, "Orange": true, "Telenet": true }, "geometry": { "type": "Point", "coordinates": [ 146243.0, 186641.0 ] } },
{ "type": "Feature", "properties": { "Adres": "Bedevaartstraat 12", "Locatie": "", "PostcodeGemeente": "8490 Jabbeke", "Eigenaar1": "Orange Belgium: 32411O1_1", "Eigenaar2": "Proximus: 50BKG_01", "Eigenaar3": null, "X": 58434, "Y": 206434, "ID": 21146, "Longitude": 3.0597412659532899, "Latitude": 51.160660493164599, "Proximus": true, "Orange": true, "Telenet": false }, "geometry": { "type": "Point", "coordinates": [ 58434.0, 206434.0 ] } },
{ "type": "Feature", "properties": { "Adres": "Leffingestraat 1 \/ Edith Cavellstraat 19", "Locatie": "Vesalius Hogeschool", "PostcodeGemeente": "8400 Oostende", "Eigenaar1": "Telenet: _WV5854D", "Eigenaar2": "Orange Belgium: 245O1_1", "Eigenaar3": "Proximus: 59VNL_01", "X": 48439, "Y": 213414, "ID": 21149, "Longitude": 2.9149386235220098, "Latitude": 51.2217176290739, "Proximus": true, "Orange": true, "Telenet": true }, "geometry": { "type": "Point", "coordinates": [ 48439.0, 213414.0 ] } },
{ "type": "Feature", "properties": { "Adres": "Sint-Lucaslaan 29", "Locatie": "Sint-Lucas Ziekenhuis", "PostcodeGemeente": "8310 Brugge", "Eigenaar1": "Orange Belgium: 30271O1_1", "Eigenaar2": "Proximus: 50BZT_00", "Eigenaar3": null, "X": 71708, "Y": 208936, "ID": 21150, "Longitude": 3.2489294093552901, "Latitude": 51.185098242644202, "Proximus": true, "Orange": true, "Telenet": false }, "geometry": { "type": "Point", "coordinates": [ 71708.0, 208936.0 ] } },
{ "type": "Feature", "properties": { "Adres": "Georges Marlowsquare 3", "Locatie": "", "PostcodeGemeente": "1180 Ukkel", "Eigenaar1": "Telenet: _BX3078H", "Eigenaar2": "Orange Belgium: 195B1_4", "Eigenaar3": "Proximus: 02PED_01", "X": 148048, "Y": 165692, "ID": 21159, "Longitude": 4.3410320169270298, "Latitude": 50.801676666516997, "Proximus": true, "Orange": true, "Telenet": true }, "geometry": { "type": "Point", "coordinates": [ 148048.0, 165692.0 ] } },
{ "type": "Feature", "properties": { "Adres": "Bloemistenstraat 40", "Locatie": "", "PostcodeGemeente": "1000 Brussel", "Eigenaar1": "Orange Belgium: 296B1_1", "Eigenaar2": "Proximus: 02PJB_02", "Eigenaar3": null, "X": 148186, "Y": 169536, "ID": 21160, "Longitude": 4.3429710263495602, "Latitude": 50.836232864269597, "Proximus": true, "Orange": true, "Telenet": false }, "geometry": { "type": "Point", "coordinates": [ 148186.0, 169536.0 ] } },
{ "type": "Feature", "properties": { "Adres": "Vierwindenstraat 137", "Locatie": "", "PostcodeGemeente": "1080 Sint-Jans-Molenbeek", "Eigenaar1": "Telenet: _BX3172A", "Eigenaar2": "Orange Belgium: 30823B1_1", "Eigenaar3": "Proximus: 02SJB_00", "X": 147106, "Y": 171191, "ID": 21162, "Longitude": 4.3276263109694897, "Latitude": 50.851106132276797, "Proximus": true, "Orange": true, "Telenet": true }, "geometry": { "type": "Point", "coordinates": [ 147106.0, 171191.0 ] } },
{ "type": "Feature", "properties": { "Adres": "Dorpsstraat 161", "Locatie": "Braet - Devos N.V.", "PostcodeGemeente": "9980 Sint-Laureins", "Eigenaar1": "Telenet: _OV5277D", "Eigenaar2": "Orange Belgium: 055G1_1", "Eigenaar3": "Proximus: 91LAU_02", "X": 91394, "Y": 214798, "ID": 21164, "Longitude": 3.5295190990273002, "Latitude": 51.240117881782801, "Proximus": true, "Orange": true, "Telenet": true }, "geometry": { "type": "Point", "coordinates": [ 91394.0, 214798.0 ] } },
{ "type": "Feature", "properties": { "Adres": "Ch?ra du Ma?tre", "Locatie": "", "PostcodeGemeente": "4690 Bassenge", "Eigenaar1": "Orange Belgium: 405L1_2", "Eigenaar2": "Proximus: 41EBN_01", "Eigenaar3": null, "X": 240777, "Y": 164395, "ID": 21171, "Longitude": 5.6560089132715801, "Latitude": 50.782940478411398, "Proximus": true, "Orange": true, "Telenet": false }, "geometry": { "type": "Point", "coordinates": [ 240777.0, 164395.0 ] } },
{ "type": "Feature", "properties": { "Adres": "Breivinstraat \/ Heikempstraat 1107", "Locatie": "Smolders Metaalwerken", "PostcodeGemeente": "3640 Kinrooi", "Eigenaar1": "Orange Belgium: 136H1_2", "Eigenaar2": "Proximus: 89MOB_03", "Eigenaar3": null, "X": 244344, "Y": 208666, "ID": 21173, "Longitude": 5.7179930330398401, "Latitude": 51.180264498260598, "Proximus": true, "Orange": true, "Telenet": false }, "geometry": { "type": "Point", "coordinates": [ 244344.0, 208666.0 ] } },
{ "type": "Feature", "properties": { "Adres": "Lotenhullestraat", "Locatie": "Station Bellem", "PostcodeGemeente": "9881 Aalter", "Eigenaar1": "Telenet: _OV5288D", "Eigenaar2": "Orange Belgium: 286G1_1 \/ 32286G1_2", "Eigenaar3": "Proximus: 91BEL_01", "X": 88190, "Y": 197481, "ID": 21175, "Longitude": 3.48658946841697, "Latitude": 51.084139485275699, "Proximus": true, "Orange": true, "Telenet": true }, "geometry": { "type": "Point", "coordinates": [ 88190.0, 197481.0 ] } },
{ "type": "Feature", "properties": { "Adres": "Blauberg 1", "Locatie": "Onze-Lieve-Vrouw Onbevlekt Ontvangenkerk", "PostcodeGemeente": "2230 Herselt", "Eigenaar1": "Orange Belgium: 300A1_1", "Eigenaar2": "Proximus: 14BLB_01", "Eigenaar3": null, "X": 189293, "Y": 192819, "ID": 21183, "Longitude": 4.9290168970452299, "Latitude": 51.044197068179699, "Proximus": true, "Orange": true, "Telenet": false }, "geometry": { "type": "Point", "coordinates": [ 189293.0, 192819.0 ] } },
{ "type": "Feature", "properties": { "Adres": "Industriezone 1 \/ Industriezone 1", "Locatie": "Depot AB Inbev", "PostcodeGemeente": "8490 Jabbeke", "Eigenaar1": "Orange Belgium: 061O1_1", "Eigenaar2": null, "Eigenaar3": null, "X": 61027, "Y": 209933, "ID": 21186, "Longitude": 3.0959448007877302, "Latitude": 51.192511720657699, "Proximus": false, "Orange": true, "Telenet": false }, "geometry": { "type": "Point", "coordinates": [ 61027.0, 209933.0 ] } },
{ "type": "Feature", "properties": { "Adres": "Hervormingslaan 63", "Locatie": "", "PostcodeGemeente": "1083 Ganshoren", "Eigenaar1": "Orange Belgium: 30358B1_1", "Eigenaar2": "Proximus: 02EFS_02", "Eigenaar3": null, "X": 146099, "Y": 173832, "ID": 21187, "Longitude": 4.3132984411282997, "Latitude": 50.874841456404802, "Proximus": true, "Orange": true, "Telenet": false }, "geometry": { "type": "Point", "coordinates": [ 146099.0, 173832.0 ] } },
{ "type": "Feature", "properties": { "Adres": "'t Walletje 40", "Locatie": "", "PostcodeGemeente": "8300 Knokke-Heist", "Eigenaar1": "Orange Belgium: 084O1_2", "Eigenaar2": "Proximus: 50WKK_02", "Eigenaar3": null, "X": 74580, "Y": 224071, "ID": 21188, "Longitude": 3.2868471793090199, "Latitude": 51.321503224094499, "Proximus": true, "Orange": true, "Telenet": false }, "geometry": { "type": "Point", "coordinates": [ 74580.0, 224071.0 ] } },
{ "type": "Feature", "properties": { "Adres": "Gentstraat 129", "Locatie": "Steenbakkerij A.M.T.", "PostcodeGemeente": "9140 Temse", "Eigenaar1": "Telenet: _OV5348C", "Eigenaar2": "Orange Belgium: 342G1_1", "Eigenaar3": "Proximus: 03TIE_01", "X": 135907, "Y": 200772, "ID": 21189, "Longitude": 4.1674572600387201, "Latitude": 51.116849076803902, "Proximus": true, "Orange": true, "Telenet": true }, "geometry": { "type": "Point", "coordinates": [ 135907.0, 200772.0 ] } },
{ "type": "Feature", "properties": { "Adres": "Kortrijksestraat 159", "Locatie": "", "PostcodeGemeente": "8520 Kuurne", "Eigenaar1": "Telenet: _WV5579E", "Eigenaar2": "Orange Belgium: 30310O1_3", "Eigenaar3": "Proximus: 56KGB_01", "X": 73077, "Y": 170974, "ID": 21190, "Longitude": 3.2764935292114701, "Latitude": 50.844078565478, "Proximus": true, "Orange": true, "Telenet": true }, "geometry": { "type": "Point", "coordinates": [ 73077.0, 170974.0 ] } },
{ "type": "Feature", "properties": { "Adres": "Molenstraat 1 \/ Kemzekestraat 1", "Locatie": "Sint-Jacobuskerk", "PostcodeGemeente": "9190 Stekene", "Eigenaar1": "Telenet: _OV5312A", "Eigenaar2": "Orange Belgium: 346G1_1", "Eigenaar3": "Proximus: 03KZK_02", "X": 129733, "Y": 210818, "ID": 21191, "Longitude": 4.0787249225684699, "Latitude": 51.206964377430801, "Proximus": true, "Orange": true, "Telenet": true }, "geometry": { "type": "Point", "coordinates": [ 129733.0, 210818.0 ] } },
{ "type": "Feature", "properties": { "Adres": "Sportlaan 28 \/ Keibergstraat 32", "Locatie": "", "PostcodeGemeente": "8480 Ichtegem", "Eigenaar1": "Telenet: _WV5596B", "Eigenaar2": "Orange Belgium: 209O1_1", "Eigenaar3": "Proximus: 51ICH_01", "X": 55608, "Y": 198487, "ID": 21202, "Longitude": 3.0214123409537601, "Latitude": 51.088784396601099, "Proximus": true, "Orange": true, "Telenet": true }, "geometry": { "type": "Point", "coordinates": [ 55608.0, 198487.0 ] } },
{ "type": "Feature", "properties": { "Adres": "Hendrik Consciencelaan 10", "Locatie": "Residentie Montreal", "PostcodeGemeente": "8660 De Panne", "Eigenaar1": "Telenet: _WV5701C", "Eigenaar2": "Orange Belgium: 257O1_1", "Eigenaar3": "Proximus: 58DPK_00", "X": 24635, "Y": 200288, "ID": 21203, "Longitude": 2.5788475055084601, "Latitude": 51.099087670036702, "Proximus": true, "Orange": true, "Telenet": true }, "geometry": { "type": "Point", "coordinates": [ 24635.0, 200288.0 ] } },
{ "type": "Feature", "properties": { "Adres": "E17", "Locatie": "Zwijndrecht snelweg, Gent-Antwerpen, Afrit 17", "PostcodeGemeente": "2070 Zwijndrecht", "Eigenaar1": "Telenet: _AN0115A", "Eigenaar2": "Orange Belgium: 30789A1_4", "Eigenaar3": "Proximus: 03ZWH_00", "X": 147568, "Y": 210770, "ID": 21204, "Longitude": 4.33392636837727, "Latitude": 51.206882915909198, "Proximus": true, "Orange": true, "Telenet": true }, "geometry": { "type": "Point", "coordinates": [ 147568.0, 210770.0 ] } },
{ "type": "Feature", "properties": { "Adres": "Steenweg op Mol 177", "Locatie": "Miko", "PostcodeGemeente": "2300 Turnhout", "Eigenaar1": "Telenet: _AN0400A", "Eigenaar2": "Orange Belgium: 246A1_4", "Eigenaar3": "Proximus: 14ZTU_02", "X": 191794, "Y": 223718, "ID": 21206, "Longitude": 4.9682389148438801, "Latitude": 51.321748254312197, "Proximus": true, "Orange": true, "Telenet": true }, "geometry": { "type": "Point", "coordinates": [ 191794.0, 223718.0 ] } },
{ "type": "Feature", "properties": { "Adres": "Kroonlaan 42", "Locatie": "", "PostcodeGemeente": "1050 Elsene", "Eigenaar1": "Telenet: _BX3509A", "Eigenaar2": "Orange Belgium: 30071B1_1", "Eigenaar3": "Proximus: 02RMB_00", "X": 150612, "Y": 168987, "ID": 21207, "Longitude": 4.3774097899670998, "Latitude": 50.831300048560699, "Proximus": true, "Orange": true, "Telenet": true }, "geometry": { "type": "Point", "coordinates": [ 150612.0, 168987.0 ] } },
{ "type": "Feature", "properties": { "Adres": "Keiemdorpstraat 59", "Locatie": "Sint-NiklaasKerk", "PostcodeGemeente": "8600 Diksmuide", "Eigenaar1": "Orange Belgium: 323O1_1", "Eigenaar2": "Proximus: 51KEI_01", "Eigenaar3": null, "X": 45795, "Y": 197789, "ID": 21214, "Longitude": 2.8815809549900502, "Latitude": 51.0808276857748, "Proximus": true, "Orange": true, "Telenet": false }, "geometry": { "type": "Point", "coordinates": [ 45795.0, 197789.0 ] } },
{ "type": "Feature", "properties": { "Adres": "Vrijheid 185", "Locatie": "Sint-Catharinakerk", "PostcodeGemeente": "2320 Hoogstraten", "Eigenaar1": "Telenet: _AN0144A", "Eigenaar2": "Orange Belgium: 31191A1_1", "Eigenaar3": "Proximus: 03HGC_01", "X": 177345, "Y": 232412, "ID": 21220, "Longitude": 4.7616416998395197, "Latitude": 51.4007559122701, "Proximus": true, "Orange": true, "Telenet": true }, "geometry": { "type": "Point", "coordinates": [ 177345.0, 232412.0 ] } },
{ "type": "Feature", "properties": { "Adres": "Branstsedreef", "Locatie": "Sint-Vincentuis ? Paulokerk", "PostcodeGemeente": "2880 Bornem", "Eigenaar1": "Orange Belgium: 340A1_3", "Eigenaar2": "Proximus: 03BRN_00", "Eigenaar3": null, "X": 138145, "Y": 196617, "ID": 21222, "Longitude": 4.1995539363868604, "Latitude": 51.079550914779603, "Proximus": true, "Orange": true, "Telenet": false }, "geometry": { "type": "Point", "coordinates": [ 138145.0, 196617.0 ] } },
{ "type": "Feature", "properties": { "Adres": "N258 \/ E314", "Locatie": "N258 - E314 \/ Afrit 23", "PostcodeGemeente": "3390 Tielt-Winge \/ 3390 Tielt-Winge", "Eigenaar1": "Telenet: _VB4064D", "Eigenaar2": "Orange Belgium: 30195F1_1", "Eigenaar3": "Proximus: 13TLT_01", "X": 189438, "Y": 183386, "ID": 21225, "Longitude": 4.93006663621345, "Latitude": 50.959395794044603, "Proximus": true, "Orange": true, "Telenet": true }, "geometry": { "type": "Point", "coordinates": [ 189438.0, 183386.0 ] } },
{ "type": "Feature", "properties": { "Adres": "Grote Heide 9", "Locatie": "Maagd der Armenkerk", "PostcodeGemeente": "3910 Neerpelt", "Eigenaar1": "Orange Belgium: 191H1_1", "Eigenaar2": "Proximus: 11GRH_01", "Eigenaar3": null, "X": 224678, "Y": 215774, "ID": 21229, "Longitude": 5.4382477264826399, "Latitude": 51.247026205835503, "Proximus": true, "Orange": true, "Telenet": false }, "geometry": { "type": "Point", "coordinates": [ 224678.0, 215774.0 ] } },
{ "type": "Feature", "properties": { "Adres": "Waardstraat", "Locatie": "", "PostcodeGemeente": "3520 Zonhoven", "Eigenaar1": "Telenet: _LI2582V", "Eigenaar2": "Orange Belgium: 30013H1_1", "Eigenaar3": "Proximus: 11TEU_01", "X": 222060, "Y": 189563, "ID": 21230, "Longitude": 5.3955640623730403, "Latitude": 51.011780269961001, "Proximus": true, "Orange": true, "Telenet": true }, "geometry": { "type": "Point", "coordinates": [ 222060.0, 189563.0 ] } },
{ "type": "Feature", "properties": { "Adres": "Everslaarstraat \/ Bredenhoekstraat", "Locatie": "", "PostcodeGemeente": "9160 Lokeren", "Eigenaar1": "Telenet: _OV5064V", "Eigenaar2": "Orange Belgium: 314G1_2", "Eigenaar3": "Proximus: 91EVL_00", "X": 122381, "Y": 196113, "ID": 21231, "Longitude": 3.97464264745282, "Latitude": 51.074483703575602, "Proximus": true, "Orange": true, "Telenet": true }, "geometry": { "type": "Point", "coordinates": [ 122381.0, 196113.0 ] } },
{ "type": "Feature", "properties": { "Adres": "Fonsnylaan 47", "Locatie": "", "PostcodeGemeente": "1060 Sint-Gillis", "Eigenaar1": "Orange Belgium: 30053B1_1", "Eigenaar2": "Proximus: 02SUD_00", "Eigenaar3": null, "X": 147803, "Y": 169477, "ID": 21238, "Longitude": 4.3375341056749903, "Latitude": 50.8357012670782, "Proximus": true, "Orange": true, "Telenet": false }, "geometry": { "type": "Point", "coordinates": [ 147803.0, 169477.0 ] } },
{ "type": "Feature", "properties": { "Adres": "Emile Jacqmainlaan 1", "Locatie": "", "PostcodeGemeente": "1000 Brussel", "Eigenaar1": "Orange Belgium: 115B1_1", "Eigenaar2": null, "Eigenaar3": null, "X": 148914, "Y": 171304, "ID": 21239, "Longitude": 4.3533006774134, "Latitude": 50.852128101490202, "Proximus": false, "Orange": true, "Telenet": false }, "geometry": { "type": "Point", "coordinates": [ 148914.0, 171304.0 ] } },
{ "type": "Feature", "properties": { "Adres": "Waversesteenweg 21", "Locatie": "", "PostcodeGemeente": "1050 Elsene", "Eigenaar1": "Orange Belgium: 30061B1_1", "Eigenaar2": null, "Eigenaar3": null, "X": 149620, "Y": 169640, "ID": 21240, "Longitude": 4.3633280293958396, "Latitude": 50.837170442818, "Proximus": false, "Orange": true, "Telenet": false }, "geometry": { "type": "Point", "coordinates": [ 149620.0, 169640.0 ] } },
{ "type": "Feature", "properties": { "Adres": "Emile Bossaertlaan \/ Basiliekvoorplein", "Locatie": "", "PostcodeGemeente": "1081 Koekelberg \/ 1083 Ganshoren", "Eigenaar1": "Telenet: _BX3001G", "Eigenaar2": "Orange Belgium: 110B1_6", "Eigenaar3": "Proximus: 02KKB_00", "X": 146351, "Y": 172968, "ID": 21244, "Longitude": 4.3168872943118002, "Latitude": 50.867076239317697, "Proximus": true, "Orange": true, "Telenet": true }, "geometry": { "type": "Point", "coordinates": [ 146351.0, 172968.0 ] } },
{ "type": "Feature", "properties": { "Adres": "Opge?istenlaan 208", "Locatie": "", "PostcodeGemeente": "9000 Gent", "Eigenaar1": "Telenet: _OV5320O", "Eigenaar2": "Orange Belgium: 40176G1_1", "Eigenaar3": "Proximus: 91OGL_01", "X": 104217, "Y": 194890, "ID": 21248, "Longitude": 3.7156336737566198, "Latitude": 51.062339646142703, "Proximus": true, "Orange": true, "Telenet": true }, "geometry": { "type": "Point", "coordinates": [ 104217.0, 194890.0 ] } },
{ "type": "Feature", "properties": { "Adres": "Stroomstraat 10", "Locatie": "", "PostcodeGemeente": "9968 Assenede", "Eigenaar1": "Orange Belgium: C1-32093-G1", "Eigenaar2": "Proximus: 91OST_00", "Eigenaar3": null, "X": 102448, "Y": 209546, "ID": 21249, "Longitude": 3.6884854760366501, "Latitude": 51.193929772799002, "Proximus": true, "Orange": true, "Telenet": false }, "geometry": { "type": "Point", "coordinates": [ 102448.0, 209546.0 ] } },
{ "type": "Feature", "properties": { "Adres": "Ma?sstraat 215", "Locatie": "Watertoren", "PostcodeGemeente": "9000 Gent", "Eigenaar1": "Telenet: _OV5205A", "Eigenaar2": "Orange Belgium: 037G1_4", "Eigenaar3": "Proximus: 91NWV_01", "X": 104045, "Y": 196078, "ID": 21253, "Longitude": 3.71303055546425, "Latitude": 51.073004419645102, "Proximus": true, "Orange": true, "Telenet": true }, "geometry": { "type": "Point", "coordinates": [ 104045.0, 196078.0 ] } },
{ "type": "Feature", "properties": { "Adres": "Maststraat", "Locatie": "", "PostcodeGemeente": "8930 Menen", "Eigenaar1": "Telenet: _WV5899A", "Eigenaar2": "Orange Belgium: 003O1_7", "Eigenaar3": "Proximus: 56MEI_01", "X": 60387, "Y": 165203, "ID": 21254, "Longitude": 3.09774366969926, "Latitude": 50.790391217276699, "Proximus": true, "Orange": true, "Telenet": true }, "geometry": { "type": "Point", "coordinates": [ 60387.0, 165203.0 ] } },
{ "type": "Feature", "properties": { "Adres": "Groenenborgerlaan 171", "Locatie": "Universitair Centrum Antwerpen", "PostcodeGemeente": "2020 Antwerpen", "Eigenaar1": "Telenet: _AN0023B", "Eigenaar2": "Orange Belgium: 159A1_1 \/ 30302A1_2 \/ 40302A1_1", "Eigenaar3": null, "X": 153212, "Y": 207534, "ID": 21267, "Longitude": 4.4146574179335998, "Latitude": 51.177792064287097, "Proximus": false, "Orange": true, "Telenet": true }, "geometry": { "type": "Point", "coordinates": [ 153212.0, 207534.0 ] } },
{ "type": "Feature", "properties": { "Adres": "Steenweg naar Asse", "Locatie": "", "PostcodeGemeente": "7850 Enghien", "Eigenaar1": "Telenet: _HT1696B", "Eigenaar2": "Orange Belgium: 429C1_1", "Eigenaar3": "Proximus: 02TPE_01", "X": 127157, "Y": 154216, "ID": 21268, "Longitude": 4.0453889077774896, "Latitude": 50.698067951858498, "Proximus": true, "Orange": true, "Telenet": true }, "geometry": { "type": "Point", "coordinates": [ 127157.0, 154216.0 ] } },
{ "type": "Feature", "properties": { "Adres": "Breestraat 1", "Locatie": "Voetbalveld", "PostcodeGemeente": "9880 Aalter", "Eigenaar1": "Orange Belgium: 301G1_1", "Eigenaar2": "Proximus: 51LOT_01", "Eigenaar3": null, "X": 85934, "Y": 193364, "ID": 21270, "Longitude": 3.4551184731197999, "Latitude": 51.0468897556133, "Proximus": true, "Orange": true, "Telenet": false }, "geometry": { "type": "Point", "coordinates": [ 85934.0, 193364.0 ] } },
{ "type": "Feature", "properties": { "Adres": "Chauss?e de La Hulpe", "Locatie": "Gare de la Hulpe", "PostcodeGemeente": "1310 La Hulpe", "Eigenaar1": "Telenet: _BW4534F", "Eigenaar2": "Orange Belgium: 211W1_2&30021W1_1", "Eigenaar3": "Proximus: 02TRC_00", "X": 159142, "Y": 158507, "ID": 21275, "Longitude": 4.4982295119000302, "Latitude": 50.737017023658197, "Proximus": true, "Orange": true, "Telenet": true }, "geometry": { "type": "Point", "coordinates": [ 159142.0, 158507.0 ] } },
{ "type": "Feature", "properties": { "Adres": "Emblemsesteenweg 1", "Locatie": "OLV Koningin van de Vredekerk", "PostcodeGemeente": "2560 Nijlen", "Eigenaar1": "Telenet: _AN0377B", "Eigenaar2": "Orange Belgium: 32309A1_1", "Eigenaar3": "Proximus: 03KES_01", "X": 167400, "Y": 204573, "ID": 21277, "Longitude": 4.6174032088718198, "Latitude": 51.150923191318597, "Proximus": true, "Orange": true, "Telenet": true }, "geometry": { "type": "Point", "coordinates": [ 167400.0, 204573.0 ] } },
{ "type": "Feature", "properties": { "Adres": "Hertshage \/ Zegepraalstraat", "Locatie": "", "PostcodeGemeente": "9300 Aalst", "Eigenaar1": "Telenet: _OV5211B", "Eigenaar2": "Orange Belgium: 351G1_1", "Eigenaar3": "Proximus: 53BNS_02", "X": 127025, "Y": 181572, "ID": 21280, "Longitude": 4.0418174003693403, "Latitude": 50.943978060341699, "Proximus": true, "Orange": true, "Telenet": true }, "geometry": { "type": "Point", "coordinates": [ 127025.0, 181572.0 ] } },
{ "type": "Feature", "properties": { "Adres": "Rue Anne Croix", "Locatie": "", "PostcodeGemeente": "1430 Rebecq", "Eigenaar1": "Orange Belgium: 221W1_1", "Eigenaar2": "Proximus: 02TBI_01", "Eigenaar3": null, "X": 131968, "Y": 154068, "ID": 21281, "Longitude": 4.1134931330303397, "Latitude": 50.6969056864124, "Proximus": true, "Orange": true, "Telenet": false }, "geometry": { "type": "Point", "coordinates": [ 131968.0, 154068.0 ] } },
{ "type": "Feature", "properties": { "Adres": "Ninoofsesteenweg 833", "Locatie": "", "PostcodeGemeente": "1703 Dilbeek", "Eigenaar1": "Telenet: _VB4152A", "Eigenaar2": "Orange Belgium: 121F1_2", "Eigenaar3": "Proximus: 02TSK_01", "X": 138669, "Y": 169903, "ID": 21284, "Longitude": 4.2078555532288098, "Latitude": 50.839424966072201, "Proximus": true, "Orange": true, "Telenet": true }, "geometry": { "type": "Point", "coordinates": [ 138669.0, 169903.0 ] } },
{ "type": "Feature", "properties": { "Adres": "A. J. Slegerslaan 36", "Locatie": "", "PostcodeGemeente": "1200 Sint-Lambrechts-Woluwe", "Eigenaar1": "Orange Belgium: 269B1_9", "Eigenaar2": "Proximus: 02SAC_00", "Eigenaar3": null, "X": 154254, "Y": 170107, "ID": 21288, "Longitude": 4.4291196219310596, "Latitude": 50.841352838100804, "Proximus": true, "Orange": true, "Telenet": false }, "geometry": { "type": "Point", "coordinates": [ 154254.0, 170107.0 ] } },
{ "type": "Feature", "properties": { "Adres": "Rue Ars?ne Matton 15", "Locatie": "", "PostcodeGemeente": "1325 Chaumont-Gistoux", "Eigenaar1": "Telenet: _BW4629P", "Eigenaar2": "Orange Belgium: 1-32264-W1", "Eigenaar3": "Proximus: 10DLT_01", "X": 170784, "Y": 154671, "ID": 21292, "Longitude": 4.6629358162376997, "Latitude": 50.702233129512798, "Proximus": true, "Orange": true, "Telenet": true }, "geometry": { "type": "Point", "coordinates": [ 170784.0, 154671.0 ] } },
{ "type": "Feature", "properties": { "Adres": "Rue Chauss?e 90", "Locatie": "", "PostcodeGemeente": "4342 Awans", "Eigenaar1": "Orange Belgium: 042L1_1", "Eigenaar2": "Proximus: 41HOG_00", "Eigenaar3": null, "X": 226952, "Y": 153397, "ID": 21293, "Longitude": 5.4577023070242499, "Latitude": 50.686073529357699, "Proximus": true, "Orange": true, "Telenet": false }, "geometry": { "type": "Point", "coordinates": [ 226952.0, 153397.0 ] } },
{ "type": "Feature", "properties": { "Adres": "Rue Champ?tre", "Locatie": "Chateau d'eau", "PostcodeGemeente": "1300 Wavre", "Eigenaar1": "Telenet: _BW4549A", "Eigenaar2": "Orange Belgium: 219W1_1", "Eigenaar3": "Proximus: 10LMA_01", "X": 163488, "Y": 154774, "ID": 21294, "Longitude": 4.5596595210770197, "Latitude": 50.703373740094499, "Proximus": true, "Orange": true, "Telenet": true }, "geometry": { "type": "Point", "coordinates": [ 163488.0, 154774.0 ] } },
{ "type": "Feature", "properties": { "Adres": "Amsterdamstraat", "Locatie": "De Rijke Transport NV", "PostcodeGemeente": "2321 Hoogstraten", "Eigenaar1": "Telenet: _AN0565P", "Eigenaar2": "Orange Belgium: 381A1_4", "Eigenaar3": "Proximus: 03MOS_03", "X": 175048, "Y": 241629, "ID": 21301, "Longitude": 4.7292813225556198, "Latitude": 51.483697846864601, "Proximus": true, "Orange": true, "Telenet": true }, "geometry": { "type": "Point", "coordinates": [ 175048.0, 241629.0 ] } },
{ "type": "Feature", "properties": { "Adres": "Henri Hollevoetlaan 16", "Locatie": "", "PostcodeGemeente": "1080 Sint-Jans-Molenbeek", "Eigenaar1": "Telenet: _BX3559A", "Eigenaar2": "Orange Belgium: 314B1_1", "Eigenaar3": "Proximus: 02EVC_00", "X": 147788, "Y": 172792, "ID": 21307, "Longitude": 4.33730150740928, "Latitude": 50.865501321023899, "Proximus": true, "Orange": true, "Telenet": true }, "geometry": { "type": "Point", "coordinates": [ 147788.0, 172792.0 ] } },
{ "type": "Feature", "properties": { "Adres": "Nijverheidsstraat", "Locatie": "", "PostcodeGemeente": "2260 Westerlo", "Eigenaar1": "Telenet: _AN0131V", "Eigenaar2": "Orange Belgium: 236A1_4", "Eigenaar3": "Proximus: 14OVE_01", "X": 187328, "Y": 203764, "ID": 21308, "Longitude": 4.9021206011937801, "Latitude": 51.142706982522299, "Proximus": true, "Orange": true, "Telenet": true }, "geometry": { "type": "Point", "coordinates": [ 187328.0, 203764.0 ] } },
{ "type": "Feature", "properties": { "Adres": "Terhulpsesteenweg 150", "Locatie": "", "PostcodeGemeente": "1170 Watermaal-Bosvoorde", "Eigenaar1": "Telenet: _BX3052G", "Eigenaar2": "Orange Belgium: 088B1_3", "Eigenaar3": "Proximus: 02HLP_00", "X": 152301, "Y": 165154, "ID": 21309, "Longitude": 4.4013602391658004, "Latitude": 50.796838835139098, "Proximus": true, "Orange": true, "Telenet": true }, "geometry": { "type": "Point", "coordinates": [ 152301.0, 165154.0 ] } },
{ "type": "Feature", "properties": { "Adres": "Vogelzanglaan 2", "Locatie": "", "PostcodeGemeente": "1150 Sint-Pieters-Woluwe", "Eigenaar1": "Telenet: _BX3145A", "Eigenaar2": "Orange Belgium: 219B1_3", "Eigenaar3": "Proximus: 02WOV_00", "X": 153506, "Y": 168513, "ID": 21320, "Longitude": 4.4184844602805304, "Latitude": 50.827028641849203, "Proximus": true, "Orange": true, "Telenet": true }, "geometry": { "type": "Point", "coordinates": [ 153506.0, 168513.0 ] } },
{ "type": "Feature", "properties": { "Adres": "Binkomstraat 1", "Locatie": "Sint-Matthe?skerk", "PostcodeGemeente": "3391 Tielt-Winge", "Eigenaar1": "Orange Belgium: 373F1_1", "Eigenaar2": "Proximus: 16KZM_01", "Eigenaar3": null, "X": 189074, "Y": 176278, "ID": 21325, "Longitude": 4.9241283546553101, "Latitude": 50.895526469722299, "Proximus": true, "Orange": true, "Telenet": false }, "geometry": { "type": "Point", "coordinates": [ 189074.0, 176278.0 ] } },
{ "type": "Feature", "properties": { "Adres": "Belgi?plein", "Locatie": "", "PostcodeGemeente": "1020 Brussel", "Eigenaar1": "Telenet: _BX3065A", "Eigenaar2": "Orange Belgium: 30273B3_1 \/ 30366B1_1", "Eigenaar3": "Proximus: 02EXP_00", "X": 147817, "Y": 176581, "ID": 21328, "Longitude": 4.3376913375011599, "Latitude": 50.899562099843003, "Proximus": true, "Orange": true, "Telenet": true }, "geometry": { "type": "Point", "coordinates": [ 147817.0, 176581.0 ] } },
{ "type": "Feature", "properties": { "Adres": "Triomflaan 211", "Locatie": "", "PostcodeGemeente": "1050 Elsene", "Eigenaar1": "Orange Belgium: 30621B1_1", "Eigenaar2": null, "Eigenaar3": null, "X": 152142, "Y": 167077, "ID": 21338, "Longitude": 4.3991163103500597, "Latitude": 50.814126305813602, "Proximus": false, "Orange": true, "Telenet": false }, "geometry": { "type": "Point", "coordinates": [ 152142.0, 167077.0 ] } },
{ "type": "Feature", "properties": { "Adres": "Kantersteen 47", "Locatie": "", "PostcodeGemeente": "1000 Bruxelles", "Eigenaar1": "Orange Belgium: 30041B1_1", "Eigenaar2": null, "Eigenaar3": null, "X": 149284, "Y": 170591, "ID": 21348, "Longitude": 4.3585562819568704, "Latitude": 50.845719185367301, "Proximus": false, "Orange": true, "Telenet": false }, "geometry": { "type": "Point", "coordinates": [ 149284.0, 170591.0 ] } },
{ "type": "Feature", "properties": { "Adres": "Raketstraat 96", "Locatie": "EUROCONTROL", "PostcodeGemeente": "1130 Brussel", "Eigenaar1": "Orange Belgium: 30010B3_1 \/ 42001B1_1", "Eigenaar2": null, "Eigenaar3": null, "X": 154365, "Y": 174802, "ID": 21353, "Longitude": 4.4307517301068398, "Latitude": 50.883557483783498, "Proximus": false, "Orange": true, "Telenet": false }, "geometry": { "type": "Point", "coordinates": [ 154365.0, 174802.0 ] } },
{ "type": "Feature", "properties": { "Adres": "Rue des Trois Fermes", "Locatie": "Cimenteries CBR", "PostcodeGemeente": "4600 Vis?", "Eigenaar1": "Telenet: _LG2330A", "Eigenaar2": "Orange Belgium: 279L1_1", "Eigenaar3": "Proximus: 41LIX_00", "X": 242299, "Y": 162530, "ID": 21359, "Longitude": 5.6771214396399801, "Latitude": 50.765938045289502, "Proximus": true, "Orange": true, "Telenet": true }, "geometry": { "type": "Point", "coordinates": [ 242299.0, 162530.0 ] } },
{ "type": "Feature", "properties": { "Adres": "Keibergstraat 43 \/ Azalealaan 22", "Locatie": "Gondrexon Industrie", "PostcodeGemeente": "1930 Zaventem", "Eigenaar1": "Orange Belgium: 40258F1_1", "Eigenaar2": "Proximus: 02ZAW_01", "Eigenaar3": null, "X": 156860, "Y": 175038, "ID": 21360, "Longitude": 4.4662110726694104, "Latitude": 50.885654690846501, "Proximus": true, "Orange": true, "Telenet": false }, "geometry": { "type": "Point", "coordinates": [ 156860.0, 175038.0 ] } },
{ "type": "Feature", "properties": { "Adres": "Diestweg", "Locatie": "WZC Rusthuis De Witte Bergen BVBA", "PostcodeGemeente": "2460 Kasterlee", "Eigenaar1": "Telenet: _AN0254C", "Eigenaar2": "Orange Belgium: 269A1_1", "Eigenaar3": "Proximus: 14LIT_00", "X": 187287, "Y": 212769, "ID": 21362, "Longitude": 4.9024606570490503, "Latitude": 51.223648880448401, "Proximus": true, "Orange": true, "Telenet": true }, "geometry": { "type": "Point", "coordinates": [ 187287.0, 212769.0 ] } },
{ "type": "Feature", "properties": { "Adres": "Kapittelstraat \/ Ten Beukeboom", "Locatie": "Eurocoating NV", "PostcodeGemeente": "9400 Ninove", "Eigenaar1": "Telenet: _OV5125A", "Eigenaar2": "Orange Belgium: 244G1_1", "Eigenaar3": "Proximus: 54APC_02", "X": 121555, "Y": 168713, "ID": 21371, "Longitude": 3.96498155856594, "Latitude": 50.828143218640903, "Proximus": true, "Orange": true, "Telenet": true }, "geometry": { "type": "Point", "coordinates": [ 121555.0, 168713.0 ] } },
{ "type": "Feature", "properties": { "Adres": "Geraardsbergsestraat 28", "Locatie": "Voetbalterrein Deftinge", "PostcodeGemeente": "9570 Lierde", "Eigenaar1": "Telenet: _OV5139B", "Eigenaar2": "Orange Belgium: 452G1_2", "Eigenaar3": "Proximus: 54DEF_01", "X": 113485, "Y": 163722, "ID": 21375, "Longitude": 3.8509351315967701, "Latitude": 50.782827208014297, "Proximus": true, "Orange": true, "Telenet": true }, "geometry": { "type": "Point", "coordinates": [ 113485.0, 163722.0 ] } },
{ "type": "Feature", "properties": { "Adres": "Ankerstraat 4", "Locatie": "Noordzee Kranen&amp;Transport", "PostcodeGemeente": "8400 Oostende", "Eigenaar1": "Orange Belgium: 40461O1_1", "Eigenaar2": "Proximus: 59OPX_00", "Eigenaar3": null, "X": 50127, "Y": 214809, "ID": 21392, "Longitude": 2.9387107396027199, "Latitude": 51.234548693460503, "Proximus": true, "Orange": true, "Telenet": false }, "geometry": { "type": "Point", "coordinates": [ 50127.0, 214809.0 ] } },
{ "type": "Feature", "properties": { "Adres": "Wetenschapsstraat 11", "Locatie": "", "PostcodeGemeente": "1000 Brussel", "Eigenaar1": "Orange Belgium: 295B1_1", "Eigenaar2": null, "Eigenaar3": null, "X": 150168, "Y": 170140, "ID": 21393, "Longitude": 4.3711079840690603, "Latitude": 50.841665264589103, "Proximus": false, "Orange": true, "Telenet": false }, "geometry": { "type": "Point", "coordinates": [ 150168.0, 170140.0 ] } },
{ "type": "Feature", "properties": { "Adres": "Gentsesteenweg 1254", "Locatie": "", "PostcodeGemeente": "1082 Sint-Agatha-Berchem", "Eigenaar1": "Orange Belgium: 113B1_1", "Eigenaar2": null, "Eigenaar3": null, "X": 144780, "Y": 172903, "ID": 21394, "Longitude": 4.2945714856341697, "Latitude": 50.866479995642401, "Proximus": false, "Orange": true, "Telenet": false }, "geometry": { "type": "Point", "coordinates": [ 144780.0, 172903.0 ] } },
{ "type": "Feature", "properties": { "Adres": "Zeeschipstraat 207", "Locatie": "", "PostcodeGemeente": "9000 Gent", "Eigenaar1": "Telenet: _OV5368M", "Eigenaar2": "Orange Belgium: 130G1_4", "Eigenaar3": "Proximus: 91TAM_01", "X": 104790, "Y": 198338, "ID": 21398, "Longitude": 3.7233796625680502, "Latitude": 51.093376988046401, "Proximus": true, "Orange": true, "Telenet": true }, "geometry": { "type": "Point", "coordinates": [ 104790.0, 198338.0 ] } },
{ "type": "Feature", "properties": { "Adres": "Terlicht", "Locatie": "Watertoren Heldergem", "PostcodeGemeente": "9450 Haaltert", "Eigenaar1": "Telenet: _OV5282A", "Eigenaar2": "Orange Belgium: 067G1_2", "Eigenaar3": null, "X": 121321, "Y": 173565, "ID": 21399, "Longitude": 3.9612826279686999, "Latitude": 50.871748030368401, "Proximus": false, "Orange": true, "Telenet": true }, "geometry": { "type": "Point", "coordinates": [ 121321.0, 173565.0 ] } },
{ "type": "Feature", "properties": { "Adres": "Europalaan 65", "Locatie": "Sint-Martinuskerk", "PostcodeGemeente": "3650 Dilsen-Stokkem", "Eigenaar1": "Telenet: _LI2607C", "Eigenaar2": "Orange Belgium: 129H1_2", "Eigenaar3": "Proximus: 89DIC_01", "X": 244935, "Y": 192801, "ID": 21400, "Longitude": 5.7223056374693604, "Latitude": 51.037585227956697, "Proximus": true, "Orange": true, "Telenet": true }, "geometry": { "type": "Point", "coordinates": [ 244935.0, 192801.0 ] } },
{ "type": "Feature", "properties": { "Adres": "Zeelaan 37", "Locatie": "Brandweerkazerne", "PostcodeGemeente": "8670 Koksijde", "Eigenaar1": "Orange Belgium: 241O1_1", "Eigenaar2": "Proximus: 58KOS_00", "Eigenaar3": null, "X": 29566, "Y": 200915, "ID": 21405, "Longitude": 2.6490158901464902, "Latitude": 51.105769612465203, "Proximus": true, "Orange": true, "Telenet": false }, "geometry": { "type": "Point", "coordinates": [ 29566.0, 200915.0 ] } },
{ "type": "Feature", "properties": { "Adres": "Graaf Jansdijk 162", "Locatie": "Algemeen Ziekenhuis O.L.V.Ter Linden", "PostcodeGemeente": "8300 Knokke-Heist", "Eigenaar1": "Telenet: _WV5713B", "Eigenaar2": "Orange Belgium: 248O1_1", "Eigenaar3": null, "X": 75833, "Y": 225879, "ID": 21406, "Longitude": 3.3044468833249399, "Latitude": 51.337914544423299, "Proximus": false, "Orange": true, "Telenet": true }, "geometry": { "type": "Point", "coordinates": [ 75833.0, 225879.0 ] } },
{ "type": "Feature", "properties": { "Adres": "Verbroederingstraat", "Locatie": "Ch?teau d'eau", "PostcodeGemeente": "7700 Mouscron", "Eigenaar1": "Telenet: _HT1732H", "Eigenaar2": "Orange Belgium: 217C1_1", "Eigenaar3": "Proximus: 56RIS_00", "X": 67473, "Y": 160256, "ID": 21407, "Longitude": 3.19933165717516, "Latitude": 50.7469721354367, "Proximus": true, "Orange": true, "Telenet": true }, "geometry": { "type": "Point", "coordinates": [ 67473.0, 160256.0 ] } },
{ "type": "Feature", "properties": { "Adres": "A. Stocletlaan 23", "Locatie": "Distri-Log NV", "PostcodeGemeente": "2570 Duffel", "Eigenaar1": "Orange Belgium: 390A1_3", "Eigenaar2": "Proximus: 15DUS_03", "Eigenaar3": null, "X": 158391, "Y": 197265, "ID": 21409, "Longitude": 4.4884795426244102, "Latitude": 51.0854352524223, "Proximus": true, "Orange": true, "Telenet": false }, "geometry": { "type": "Point", "coordinates": [ 158391.0, 197265.0 ] } },
{ "type": "Feature", "properties": { "Adres": "Heistsebaan 83", "Locatie": "Sportcentrum Heikant", "PostcodeGemeente": "2590 Berlaar", "Eigenaar1": "Telenet: _AN0366D", "Eigenaar2": "Orange Belgium: 476A1_1", "Eigenaar3": "Proximus: 15HKT_04", "X": 170719, "Y": 197234, "ID": 21410, "Longitude": 4.6644189568529004, "Latitude": 51.084845851040797, "Proximus": true, "Orange": true, "Telenet": true }, "geometry": { "type": "Point", "coordinates": [ 170719.0, 197234.0 ] } },
{ "type": "Feature", "properties": { "Adres": "Daalhofstraat 45", "Locatie": "", "PostcodeGemeente": "3840 Borgloon", "Eigenaar1": "Telenet: _LI2561E", "Eigenaar2": "Orange Belgium: 087H1_1", "Eigenaar3": "Proximus: 11HOP_01", "X": 215035, "Y": 166722, "ID": 21412, "Longitude": 5.2914233294555197, "Latitude": 50.807302514440501, "Proximus": true, "Orange": true, "Telenet": true }, "geometry": { "type": "Point", "coordinates": [ 215035.0, 166722.0 ] } },
{ "type": "Feature", "properties": { "Adres": "Ferdinand Crapsstraat 2", "Locatie": "Foyers Anderlechtois", "PostcodeGemeente": "1070 Anderlecht", "Eigenaar1": "Telenet: _VB4089A", "Eigenaar2": "Orange Belgium: 074B1_1", "Eigenaar3": "Proximus: 02GLU_00", "X": 143841, "Y": 169474, "ID": 21413, "Longitude": 4.2812899325729399, "Latitude": 50.835645978557501, "Proximus": true, "Orange": true, "Telenet": true }, "geometry": { "type": "Point", "coordinates": [ 143841.0, 169474.0 ] } },
{ "type": "Feature", "properties": { "Adres": "Valaardreef 80", "Locatie": "Sint-Jan-Evangelistkerk", "PostcodeGemeente": "2610 Antwerpen", "Eigenaar1": "Orange Belgium: 30673A1_1", "Eigenaar2": null, "Eigenaar3": null, "X": 150634, "Y": 207382, "ID": 21415, "Longitude": 4.3777915982663202, "Latitude": 51.176434582726301, "Proximus": false, "Orange": true, "Telenet": false }, "geometry": { "type": "Point", "coordinates": [ 150634.0, 207382.0 ] } },
{ "type": "Feature", "properties": { "Adres": "Bokrijklaan 1", "Locatie": "Domein van Bokrijk", "PostcodeGemeente": "3600 Genk", "Eigenaar1": "Telenet: _LI2650A", "Eigenaar2": "Orange Belgium: 104H1_5", "Eigenaar3": "Proximus: 11BKR_01", "X": 223255, "Y": 183474, "ID": 21416, "Longitude": 5.4113714029804303, "Latitude": 50.9569010703487, "Proximus": true, "Orange": true, "Telenet": true }, "geometry": { "type": "Point", "coordinates": [ 223255.0, 183474.0 ] } },
{ "type": "Feature", "properties": { "Adres": "Molenvest 23", "Locatie": "Belgacom", "PostcodeGemeente": "2200 Herentals", "Eigenaar1": "Telenet: _AN0424A", "Eigenaar2": "Orange Belgium: 280A1_3", "Eigenaar3": "Proximus: 14HER_00", "X": 182401, "Y": 207432, "ID": 21417, "Longitude": 4.8320460464617199, "Latitude": 51.1759739123084, "Proximus": true, "Orange": true, "Telenet": true }, "geometry": { "type": "Point", "coordinates": [ 182401.0, 207432.0 ] } },
{ "type": "Feature", "properties": { "Adres": "Rijkelstraat 82 \/ Rijkelstraat", "Locatie": "", "PostcodeGemeente": "3511 Hasselt \/ 3510 Hasselt", "Eigenaar1": "Orange Belgium: 068H1_1", "Eigenaar2": "Proximus: 11KGP_01", "Eigenaar3": null, "X": 213284, "Y": 182328, "ID": 21418, "Longitude": 5.2692699296713004, "Latitude": 50.947773897104099, "Proximus": true, "Orange": true, "Telenet": false }, "geometry": { "type": "Point", "coordinates": [ 213284.0, 182328.0 ] } },
{ "type": "Feature", "properties": { "Adres": "Ninovestraat", "Locatie": "", "PostcodeGemeente": "9420 Erpe-Mere", "Eigenaar1": "Telenet: _OV5136H", "Eigenaar2": "Orange Belgium: 30604G1_1", "Eigenaar3": null, "X": 118971, "Y": 177557, "ID": 21423, "Longitude": 3.92756037196067, "Latitude": 50.907512405604201, "Proximus": false, "Orange": true, "Telenet": true }, "geometry": { "type": "Point", "coordinates": [ 118971.0, 177557.0 ] } },
{ "type": "Feature", "properties": { "Adres": "Kleine Noordstraat 40", "Locatie": "Watertoren VWM", "PostcodeGemeente": "8830 Hooglede", "Eigenaar1": "Telenet: _WV5751A", "Eigenaar2": "Orange Belgium: 068O1_1", "Eigenaar3": "Proximus: 51HLD_00", "X": 59511, "Y": 186553, "ID": 21424, "Longitude": 3.0800668825903799, "Latitude": 50.982149787999298, "Proximus": true, "Orange": true, "Telenet": true }, "geometry": { "type": "Point", "coordinates": [ 59511.0, 186553.0 ] } },
{ "type": "Feature", "properties": { "Adres": "Arcadelaan 5", "Locatie": "Watertoren", "PostcodeGemeente": "8301 Knokke-Heist", "Eigenaar1": "Telenet: _WV5704G", "Eigenaar2": "Orange Belgium: 046O1_1", "Eigenaar3": "Proximus: 50HST_00", "X": 73315, "Y": 226366, "ID": 21429, "Longitude": 3.2682158122910501, "Latitude": 51.341961285815898, "Proximus": true, "Orange": true, "Telenet": true }, "geometry": { "type": "Point", "coordinates": [ 73315.0, 226366.0 ] } },
{ "type": "Feature", "properties": { "Adres": "Zogge \/ Neerlandt 62", "Locatie": "Voetbalveld V.K.Z. Hamme-Zogge", "PostcodeGemeente": "9220 Hamme", "Eigenaar1": "Telenet: _OV5350B", "Eigenaar2": "Orange Belgium: 350G1_1", "Eigenaar3": "Proximus: 52ZOG_03", "X": 131131, "Y": 196060, "ID": 21430, "Longitude": 4.0994935200544802, "Latitude": 51.074358233632204, "Proximus": true, "Orange": true, "Telenet": true }, "geometry": { "type": "Point", "coordinates": [ 131131.0, 196060.0 ] } },
{ "type": "Feature", "properties": { "Adres": "Chauss?e de Wavre 323", "Locatie": "Brichart", "PostcodeGemeente": "1370 Jodoigne", "Eigenaar1": "Telenet: _BW4881A", "Eigenaar2": "Orange Belgium: 052W1_1", "Eigenaar3": "Proximus: 10LAT_02", "X": 182633, "Y": 158103, "ID": 21438, "Longitude": 4.83096721772141, "Latitude": 50.7325422619531, "Proximus": true, "Orange": true, "Telenet": true }, "geometry": { "type": "Point", "coordinates": [ 182633.0, 158103.0 ] } },
{ "type": "Feature", "properties": { "Adres": "Kraatveldstraat 137", "Locatie": "", "PostcodeGemeente": "1120 Brussel", "Eigenaar1": "Telenet: _BX3506C", "Eigenaar2": "Orange Belgium: 094B1_3", "Eigenaar3": "Proximus: 02HEC_00", "X": 151119, "Y": 176651, "ID": 21441, "Longitude": 4.3846304176551403, "Latitude": 50.900194285536003, "Proximus": true, "Orange": true, "Telenet": true }, "geometry": { "type": "Point", "coordinates": [ 151119.0, 176651.0 ] } },
{ "type": "Feature", "properties": { "Adres": "Rue des Champs du Bois \/ Rue de la Justice", "Locatie": "Ch?teau d'eau", "PostcodeGemeente": "1421 Braine-l'Alleud", "Eigenaar1": "Orange Belgium: 013W1_2", "Eigenaar2": "Proximus: 02RIS_00", "Eigenaar3": null, "X": 148034, "Y": 151453, "ID": 21442, "Longitude": 4.3409078856995196, "Latitude": 50.673671921867196, "Proximus": true, "Orange": true, "Telenet": false }, "geometry": { "type": "Point", "coordinates": [ 148034.0, 151453.0 ] } },
{ "type": "Feature", "properties": { "Adres": "Rue de Champles 36", "Locatie": "", "PostcodeGemeente": "1301 Wavre", "Eigenaar1": "Telenet: _BW4566B", "Eigenaar2": "Orange Belgium: 227W1_1", "Eigenaar3": null, "X": 164787, "Y": 156788, "ID": 21443, "Longitude": 4.5781287651315496, "Latitude": 50.721447475732397, "Proximus": false, "Orange": true, "Telenet": true }, "geometry": { "type": "Point", "coordinates": [ 164787.0, 156788.0 ] } },
{ "type": "Feature", "properties": { "Adres": "Kapelleweg", "Locatie": "Sint-Michielskerk", "PostcodeGemeente": "3090 Overijse", "Eigenaar1": "Telenet: _VB4230E", "Eigenaar2": "Orange Belgium: C1-441-F1 & C1-32441-F1 & C1-42441-F1", "Eigenaar3": "Proximus: 02TRL_01", "X": 166517, "Y": 162240, "ID": 21447, "Longitude": 4.6028720120195503, "Latitude": 50.770412720131098, "Proximus": true, "Orange": true, "Telenet": true }, "geometry": { "type": "Point", "coordinates": [ 166517.0, 162240.0 ] } },
{ "type": "Feature", "properties": { "Adres": "Weg naar Meeuwen 56", "Locatie": "Weltjens Transport N.V.", "PostcodeGemeente": "3660 Opglabbeek", "Eigenaar1": "Telenet: _LI2629B", "Eigenaar2": "Orange Belgium: 127H1_2", "Eigenaar3": "Proximus: 89RUI_01", "X": 231331, "Y": 192626, "ID": 21456, "Longitude": 5.5283354272133201, "Latitude": 51.038082957271698, "Proximus": true, "Orange": true, "Telenet": true }, "geometry": { "type": "Point", "coordinates": [ 231331.0, 192626.0 ] } },
{ "type": "Feature", "properties": { "Adres": "Kanaaldijk 14", "Locatie": "", "PostcodeGemeente": "2440 Geel", "Eigenaar1": "Telenet: _AN0260A", "Eigenaar2": "Orange Belgium: 231A1_1", "Eigenaar3": "Proximus: 14AAR_00", "X": 192812, "Y": 210367, "ID": 21460, "Longitude": 4.98125937718273, "Latitude": 51.2016757474549, "Proximus": true, "Orange": true, "Telenet": true }, "geometry": { "type": "Point", "coordinates": [ 192812.0, 210367.0 ] } },
{ "type": "Feature", "properties": { "Adres": "Waverse steenweg 1676", "Locatie": "", "PostcodeGemeente": "1160 Oudergem", "Eigenaar1": "Orange Belgium: 264B1_3", "Eigenaar2": "Proximus: 02SOU_00", "Eigenaar3": null, "X": 154202, "Y": 167325, "ID": 21464, "Longitude": 4.4283493758772501, "Latitude": 50.816344396165697, "Proximus": true, "Orange": true, "Telenet": false }, "geometry": { "type": "Point", "coordinates": [ 154202.0, 167325.0 ] } },
{ "type": "Feature", "properties": { "Adres": "Hollandse dreef", "Locatie": "Watertoren", "PostcodeGemeente": "2260 Westerlo", "Eigenaar1": "Telenet: _AN0188A", "Eigenaar2": "Orange Belgium: 094A1_1", "Eigenaar3": "Proximus: 14WTL_00", "X": 188064, "Y": 198141, "ID": 21468, "Longitude": 4.9120485947993604, "Latitude": 51.0921167425509, "Proximus": true, "Orange": true, "Telenet": true }, "geometry": { "type": "Point", "coordinates": [ 188064.0, 198141.0 ] } },
{ "type": "Feature", "properties": { "Adres": "Willeriekendreef", "Locatie": "Lieu-dit &quot;Bonne Odeur&quot;", "PostcodeGemeente": "1170 Watermaal-Bosvoorde", "Eigenaar1": "Telenet: _VB4102E", "Eigenaar2": "Orange Belgium: 30007B1_1", "Eigenaar3": "Proximus: 02RIE_00", "X": 155921, "Y": 163721, "ID": 21469, "Longitude": 4.4526841844111003, "Latitude": 50.783930863726198, "Proximus": true, "Orange": true, "Telenet": true }, "geometry": { "type": "Point", "coordinates": [ 155921.0, 163721.0 ] } },
{ "type": "Feature", "properties": { "Adres": "Heydenberglaan 49", "Locatie": "", "PostcodeGemeente": "1200 Sint-Lambrechts-Woluwe", "Eigenaar1": "Orange Belgium: 002B1_1 \/ 1-32002-B1", "Eigenaar2": "Proximus: 02ROO_00", "Eigenaar3": null, "X": 153392, "Y": 170823, "ID": 21472, "Longitude": 4.4168878923160202, "Latitude": 50.847795046052497, "Proximus": true, "Orange": true, "Telenet": false }, "geometry": { "type": "Point", "coordinates": [ 153392.0, 170823.0 ] } },
{ "type": "Feature", "properties": { "Adres": "Sint-Coletastraat 10", "Locatie": "Sint-Coletakerk", "PostcodeGemeente": "9000 Gent", "Eigenaar1": "Telenet: _OV5013A", "Eigenaar2": "Orange Belgium: 30216G1_1", "Eigenaar3": "Proximus: 91ZWS_01", "X": 104963, "Y": 191756, "ID": 21476, "Longitude": 3.7266611645538199, "Latitude": 51.034227855580802, "Proximus": true, "Orange": true, "Telenet": true }, "geometry": { "type": "Point", "coordinates": [ 104963.0, 191756.0 ] } },
{ "type": "Feature", "properties": { "Adres": "Lamorini?restraat 274 \/ Mechelsesteenweg 267", "Locatie": "Albertpark", "PostcodeGemeente": "2018 Antwerpen \/ 2000 Antwerpen", "Eigenaar1": "Orange Belgium: 30926A1_5", "Eigenaar2": "Proximus: 03ALP_01", "Eigenaar3": null, "X": 153188, "Y": 210049, "ID": 21478, "Longitude": 4.4143364808605003, "Latitude": 51.2003982268754, "Proximus": true, "Orange": true, "Telenet": false }, "geometry": { "type": "Point", "coordinates": [ 153188.0, 210049.0 ] } },
{ "type": "Feature", "properties": { "Adres": "Koning Albertlaan", "Locatie": "E34  - km 68.1", "PostcodeGemeente": "9990 Maldegem", "Eigenaar1": "Orange Belgium: 291G1_1", "Eigenaar2": "Proximus: 50VAK_00", "Eigenaar3": null, "X": 82962, "Y": 212817, "ID": 21489, "Longitude": 3.4091565189543598, "Latitude": 51.221395298738301, "Proximus": true, "Orange": true, "Telenet": false }, "geometry": { "type": "Point", "coordinates": [ 82962.0, 212817.0 ] } },
{ "type": "Feature", "properties": { "Adres": "Brand 76", "Locatie": "Camping BERKENSTRAND", "PostcodeGemeente": "2470 Retie", "Eigenaar1": "Telenet: _AN0351A", "Eigenaar2": "Orange Belgium: 263A1_1", "Eigenaar3": "Proximus: 14BKS_01", "X": 203088, "Y": 218627, "ID": 21493, "Longitude": 5.1294859030113402, "Latitude": 51.275061074984698, "Proximus": true, "Orange": true, "Telenet": true }, "geometry": { "type": "Point", "coordinates": [ 203088.0, 218627.0 ] } },
{ "type": "Feature", "properties": { "Adres": "Rue du Garage", "Locatie": "", "PostcodeGemeente": "4680 Oupeye", "Eigenaar1": "Telenet: _LG2135M", "Eigenaar2": "Orange Belgium: 217L1_5", "Eigenaar3": "Proximus: 41HME_01", "X": 238805, "Y": 155724, "ID": 21495, "Longitude": 5.6259670778438302, "Latitude": 50.705305925019402, "Proximus": true, "Orange": true, "Telenet": true }, "geometry": { "type": "Point", "coordinates": [ 238805.0, 155724.0 ] } },
{ "type": "Feature", "properties": { "Adres": "Perronstraat", "Locatie": "", "PostcodeGemeente": "1930 Zaventem", "Eigenaar1": "Orange Belgium: 40618F1_1", "Eigenaar2": "Proximus: 02NOC_01", "Eigenaar3": null, "X": 159695, "Y": 174770, "ID": 21498, "Longitude": 4.5064923764153502, "Latitude": 50.883205106736902, "Proximus": true, "Orange": true, "Telenet": false }, "geometry": { "type": "Point", "coordinates": [ 159695.0, 174770.0 ] } },
{ "type": "Feature", "properties": { "Adres": "Hogelaanstraat \/ E403", "Locatie": "", "PostcodeGemeente": "8810 Lichtervelde \/ 8810 Lichtervelde", "Eigenaar1": "Telenet: _WV5569V", "Eigenaar2": "Orange Belgium: 334O1_1", "Eigenaar3": "Proximus: 50TGR_00", "X": 64832, "Y": 195974, "ID": 21502, "Longitude": 3.1536339851560702, "Latitude": 51.067629505263497, "Proximus": true, "Orange": true, "Telenet": true }, "geometry": { "type": "Point", "coordinates": [ 64832.0, 195974.0 ] } },
{ "type": "Feature", "properties": { "Adres": "Reigerlostraat \/ E40", "Locatie": "", "PostcodeGemeente": "8730 Beernem \/ 8730 Beernem", "Eigenaar1": "Telenet: _WV5526V", "Eigenaar2": "Orange Belgium: 042O1_2", "Eigenaar3": "Proximus: 50BTK_00", "X": 76891, "Y": 201674, "ID": 21508, "Longitude": 3.3245113548031102, "Latitude": 51.1205087630061, "Proximus": true, "Orange": true, "Telenet": true }, "geometry": { "type": "Point", "coordinates": [ 76891.0, 201674.0 ] } },
{ "type": "Feature", "properties": { "Adres": "Bruggesteenweg 36 \/ Veldstraat 83", "Locatie": "", "PostcodeGemeente": "8760 Meulebeke", "Eigenaar1": "Telenet: _WV5647A", "Eigenaar2": "Orange Belgium: 336O1_1", "Eigenaar3": "Proximus: 51MAN_01", "X": 71218, "Y": 182866, "ID": 21509, "Longitude": 3.2475521191750101, "Latitude": 50.950718844484797, "Proximus": true, "Orange": true, "Telenet": true }, "geometry": { "type": "Point", "coordinates": [ 71218.0, 182866.0 ] } },
{ "type": "Feature", "properties": { "Adres": "Martelarenplein 9", "Locatie": "Sint-Bartolomeuskerk", "PostcodeGemeente": "9800 Deinze", "Eigenaar1": "Telenet: _OV5101B", "Eigenaar2": "Orange Belgium: 219G1_1", "Eigenaar3": "Proximus: 91VNK_01", "X": 87603, "Y": 189006, "ID": 21513, "Longitude": 3.47966075559677, "Latitude": 51.007900712970503, "Proximus": true, "Orange": true, "Telenet": true }, "geometry": { "type": "Point", "coordinates": [ 87603.0, 189006.0 ] } },
{ "type": "Feature", "properties": { "Adres": "Georges Coornaertdreef", "Locatie": "Sportterreinen Desselgem", "PostcodeGemeente": "8792 Waregem", "Eigenaar1": "Telenet: _WV5830P", "Eigenaar2": "Orange Belgium: 140O1_1 \/ 2-30637-O1", "Eigenaar3": "Proximus: 56DES_00", "X": 78821, "Y": 175530, "ID": 21520, "Longitude": 3.3571607453195602, "Latitude": 50.885761722399998, "Proximus": true, "Orange": true, "Telenet": true }, "geometry": { "type": "Point", "coordinates": [ 78821.0, 175530.0 ] } },
{ "type": "Feature", "properties": { "Adres": "Luikersteenweg 228", "Locatie": "Federale Politie Hasselt", "PostcodeGemeente": "3500 Hasselt", "Eigenaar1": "Telenet: _LI2656A", "Eigenaar2": "Orange Belgium: 064H1_4", "Eigenaar3": "Proximus: 11HRW_01", "X": 218807, "Y": 179057, "ID": 21523, "Longitude": 5.3472411410557097, "Latitude": 50.9177438359009, "Proximus": true, "Orange": true, "Telenet": true }, "geometry": { "type": "Point", "coordinates": [ 218807.0, 179057.0 ] } },
{ "type": "Feature", "properties": { "Adres": "Lambermontlaan 322", "Locatie": "Hotel Lambermont", "PostcodeGemeente": "1030 Schaarbeek", "Eigenaar1": "Orange Belgium: 147B1_6", "Eigenaar2": "Proximus: 02JSP_00", "Eigenaar3": null, "X": 151211, "Y": 172884, "ID": 21528, "Longitude": 4.3859254766292004, "Latitude": 50.866331088269902, "Proximus": true, "Orange": true, "Telenet": false }, "geometry": { "type": "Point", "coordinates": [ 151211.0, 172884.0 ] } },
{ "type": "Feature", "properties": { "Adres": "Aarschotsesteenweg 736", "Locatie": "Sint-Agathakerk", "PostcodeGemeente": "3012 Leuven", "Eigenaar1": "Telenet: _VB4052D", "Eigenaar2": "Orange Belgium: 099F1_4", "Eigenaar3": null, "X": 174968, "Y": 179871, "ID": 21541, "Longitude": 4.7238715668353901, "Latitude": 50.928602888109197, "Proximus": false, "Orange": true, "Telenet": true }, "geometry": { "type": "Point", "coordinates": [ 174968.0, 179871.0 ] } },
{ "type": "Feature", "properties": { "Adres": "Kloosterstraat 12", "Locatie": "Hoogspanningspyloon", "PostcodeGemeente": "3620 Lanaken", "Eigenaar1": "Orange Belgium: 109H1_3", "Eigenaar2": null, "Eigenaar3": null, "X": 237222, "Y": 175840, "ID": 21542, "Longitude": 5.60831653407788, "Latitude": 50.8863544087706, "Proximus": false, "Orange": true, "Telenet": false }, "geometry": { "type": "Point", "coordinates": [ 237222.0, 175840.0 ] } },
{ "type": "Feature", "properties": { "Adres": "Kerkplein \/ Kerkstraat 5", "Locatie": "Sint-Luciakerk", "PostcodeGemeente": "3130 Begijnendijk", "Eigenaar1": "Telenet: _VB4059A", "Eigenaar2": "Orange Belgium: 029F1_3", "Eigenaar3": "Proximus: 16BGD_00", "X": 179035, "Y": 190011, "ID": 21543, "Longitude": 4.7825247787487699, "Latitude": 51.019562047655, "Proximus": true, "Orange": true, "Telenet": true }, "geometry": { "type": "Point", "coordinates": [ 179035.0, 190011.0 ] } },
{ "type": "Feature", "properties": { "Adres": "Sint-Gillisplein \/ Tassinstraat", "Locatie": "Kerk", "PostcodeGemeente": "3300 Tienen", "Eigenaar1": "Orange Belgium: 346F1_1", "Eigenaar2": null, "Eigenaar3": null, "X": 186471, "Y": 167688, "ID": 21544, "Longitude": 4.8862779858360099, "Latitude": 50.818478339674002, "Proximus": false, "Orange": true, "Telenet": false }, "geometry": { "type": "Point", "coordinates": [ 186471.0, 167688.0 ] } },
{ "type": "Feature", "properties": { "Adres": "Metsysstraat 8", "Locatie": "", "PostcodeGemeente": "1030 Schaarbeek", "Eigenaar1": "Telenet: _BX3289A", "Eigenaar2": "Orange Belgium: 239B1_1", "Eigenaar3": null, "X": 150567, "Y": 173060, "ID": 21547, "Longitude": 4.3767776414868296, "Latitude": 50.8679141975243, "Proximus": false, "Orange": true, "Telenet": true }, "geometry": { "type": "Point", "coordinates": [ 150567.0, 173060.0 ] } },
{ "type": "Feature", "properties": { "Adres": "Ter Linden 29", "Locatie": "Sporthal Hekers", "PostcodeGemeente": "9052 Gent", "Eigenaar1": "Telenet: _OV5236A", "Eigenaar2": "Orange Belgium: 135G1_1", "Eigenaar3": "Proximus: 91ZWD_00", "X": 103815, "Y": 188333, "ID": 21548, "Longitude": 3.7107281261994101, "Latitude": 51.0033692796327, "Proximus": true, "Orange": true, "Telenet": true }, "geometry": { "type": "Point", "coordinates": [ 103815.0, 188333.0 ] } },
{ "type": "Feature", "properties": { "Adres": "Holstraat 59", "Locatie": "Residentie Beaulieu", "PostcodeGemeente": "8790 Waregem", "Eigenaar1": "Orange Belgium: 194O1_1", "Eigenaar2": "Proximus: 56WLE_00", "Eigenaar3": null, "X": 84476, "Y": 175315, "ID": 21549, "Longitude": 3.43755640123082, "Latitude": 50.884494169141497, "Proximus": true, "Orange": true, "Telenet": false }, "geometry": { "type": "Point", "coordinates": [ 84476.0, 175315.0 ] } },
{ "type": "Feature", "properties": { "Adres": "Grotewinkellaan 95", "Locatie": "Residentie Apollo", "PostcodeGemeente": "1853 Grimbergen", "Eigenaar1": "Telenet: _VB4200C", "Eigenaar2": "Orange Belgium: 40406F1_1", "Eigenaar3": "Proximus: 02STB_00", "X": 149478, "Y": 177681, "ID": 21552, "Longitude": 4.36130136205015, "Latitude": 50.909454209150297, "Proximus": true, "Orange": true, "Telenet": true }, "geometry": { "type": "Point", "coordinates": [ 149478.0, 177681.0 ] } },
{ "type": "Feature", "properties": { "Adres": "Grootlosestraat 69", "Locatie": "Garage Lucar", "PostcodeGemeente": "3128 Tremelo", "Eigenaar1": "Orange Belgium: 085F1_2 \/ 1-30617-F1", "Eigenaar2": "Proximus: 16VDK_01", "Eigenaar3": null, "X": 175736, "Y": 189778, "ID": 21558, "Longitude": 4.7354923884040199, "Latitude": 51.017623693759099, "Proximus": true, "Orange": true, "Telenet": false }, "geometry": { "type": "Point", "coordinates": [ 175736.0, 189778.0 ] } },
{ "type": "Feature", "properties": { "Adres": "Kromfortstraat", "Locatie": "", "PostcodeGemeente": "8660 De Panne", "Eigenaar1": "Telenet: _WV5700A", "Eigenaar2": "Orange Belgium: 445O1_1", "Eigenaar3": "Proximus: 58ADI_00", "X": 26261, "Y": 196916, "ID": 21559, "Longitude": 2.6031982883479801, "Latitude": 51.069136121562202, "Proximus": true, "Orange": true, "Telenet": true }, "geometry": { "type": "Point", "coordinates": [ 26261.0, 196916.0 ] } },
{ "type": "Feature", "properties": { "Adres": "Dorpsstraat 1", "Locatie": "Kerk Sint-Laurentius", "PostcodeGemeente": "8650 Houthulst", "Eigenaar1": "Telenet: _WV5754A", "Eigenaar2": "Orange Belgium: 32404O1_1", "Eigenaar3": "Proximus: 51KLE_00", "X": 47158, "Y": 188480, "ID": 21560, "Longitude": 2.9036489849523002, "Latitude": 50.997409670779398, "Proximus": true, "Orange": true, "Telenet": true }, "geometry": { "type": "Point", "coordinates": [ 47158.0, 188480.0 ] } },
{ "type": "Feature", "properties": { "Adres": "Iddergemsesteenweg 71", "Locatie": "Wiljans Company NV", "PostcodeGemeente": "9450 Haaltert", "Eigenaar1": "Telenet: _OV5124A", "Eigenaar2": "Orange Belgium: 248G1_1", "Eigenaar3": "Proximus: 54DDE_00", "X": 126001, "Y": 174203, "ID": 21561, "Longitude": 4.0277284157791096, "Latitude": 50.8776950742511, "Proximus": true, "Orange": true, "Telenet": true }, "geometry": { "type": "Point", "coordinates": [ 126001.0, 174203.0 ] } },
{ "type": "Feature", "properties": { "Adres": "Terenburgseweg 1 \/ Obterrestraat 56", "Locatie": "", "PostcodeGemeente": "8972 Poperinge", "Eigenaar1": "Telenet: _WV5612B", "Eigenaar2": "Orange Belgium: 103O1_2", "Eigenaar3": "Proximus: 57PRO_00", "X": 29274, "Y": 177084, "ID": 21566, "Longitude": 2.6527119314785499, "Latitude": 50.891548200670798, "Proximus": true, "Orange": true, "Telenet": true }, "geometry": { "type": "Point", "coordinates": [ 29274.0, 177084.0 ] } },
{ "type": "Feature", "properties": { "Adres": "Karel Rogierplein", "Locatie": "Metro", "PostcodeGemeente": "1210 Sint-Joost-ten-Node", "Eigenaar1": "Orange Belgium: 30047B5_1", "Eigenaar2": "Proximus: 02ROU_00", "Eigenaar3": null, "X": 149300, "Y": 171706, "ID": 21571, "Longitude": 4.3587815223140201, "Latitude": 50.8557423743475, "Proximus": true, "Orange": true, "Telenet": false }, "geometry": { "type": "Point", "coordinates": [ 149300.0, 171706.0 ] } },
{ "type": "Feature", "properties": { "Adres": "Impedorp", "Locatie": "kerk", "PostcodeGemeente": "9340 Lede", "Eigenaar1": "Orange Belgium: 251G1_1", "Eigenaar2": null, "Eigenaar3": null, "X": 120715, "Y": 183425, "ID": 21572, "Longitude": 3.9518874854095301, "Latitude": 50.960350954941603, "Proximus": false, "Orange": true, "Telenet": false }, "geometry": { "type": "Point", "coordinates": [ 120715.0, 183425.0 ] } },
{ "type": "Feature", "properties": { "Adres": "Dorpsplaats", "Locatie": "Kerk Sint-Jan", "PostcodeGemeente": "2531 Boechout", "Eigenaar1": "Orange Belgium: 321A1_1", "Eigenaar2": "Proximus: 03VRB_01", "Eigenaar3": null, "X": 160797, "Y": 207254, "ID": 21573, "Longitude": 4.5231145367113301, "Latitude": 51.175182924530702, "Proximus": true, "Orange": true, "Telenet": false }, "geometry": { "type": "Point", "coordinates": [ 160797.0, 207254.0 ] } },
{ "type": "Feature", "properties": { "Adres": "Wortegemplein", "Locatie": "Onze-Lieve-Vrouwkerk", "PostcodeGemeente": "9790 Wortegem-Petegem", "Eigenaar1": "Telenet: _OV5341A", "Eigenaar2": "Orange Belgium: 232G1_4", "Eigenaar3": "Proximus: 56WOR_00", "X": 89530, "Y": 171690, "ID": 21574, "Longitude": 3.50996818981606, "Latitude": 50.852457426145598, "Proximus": true, "Orange": true, "Telenet": true }, "geometry": { "type": "Point", "coordinates": [ 89530.0, 171690.0 ] } },
{ "type": "Feature", "properties": { "Adres": "Fran?ois Joseph Navezstraat \/ Fran?ois-Joseph Navezstraat", "Locatie": "", "PostcodeGemeente": "1000 Brussel \/ 1030 Schaarbeek", "Eigenaar1": "Telenet: _BX3134B", "Eigenaar2": "Orange Belgium: 142B1_1", "Eigenaar3": null, "X": 150317, "Y": 173548, "ID": 21576, "Longitude": 4.3732266752956104, "Latitude": 50.872301296481403, "Proximus": false, "Orange": true, "Telenet": true }, "geometry": { "type": "Point", "coordinates": [ 150317.0, 173548.0 ] } },
{ "type": "Feature", "properties": { "Adres": "Vooruitgangstraat 333", "Locatie": "", "PostcodeGemeente": "1030 Schaarbeek", "Eigenaar1": "Orange Belgium: 146B1_3", "Eigenaar2": "Proximus: 02JLL_01", "Eigenaar3": null, "X": 149598, "Y": 172896, "ID": 21577, "Longitude": 4.3630125723506801, "Latitude": 50.866440102264299, "Proximus": true, "Orange": true, "Telenet": false }, "geometry": { "type": "Point", "coordinates": [ 149598.0, 172896.0 ] } },
{ "type": "Feature", "properties": { "Adres": "Charles Gilisquetlaan 181 \/ Rassonstraat 181", "Locatie": "", "PostcodeGemeente": "1030 Schaarbeek", "Eigenaar1": "Orange Belgium: 30017B1_1", "Eigenaar2": null, "Eigenaar3": null, "X": 151646, "Y": 172427, "ID": 21578, "Longitude": 4.3921026315965799, "Latitude": 50.862221819773197, "Proximus": false, "Orange": true, "Telenet": false }, "geometry": { "type": "Point", "coordinates": [ 151646.0, 172427.0 ] } },
{ "type": "Feature", "properties": { "Adres": "Van Kalckstraat 93", "Locatie": "Salle omnisports Louis Nam?che", "PostcodeGemeente": "1080 Sint-Jans-Molenbeek", "Eigenaar1": "Orange Belgium: 30025B1_1", "Eigenaar2": null, "Eigenaar3": null, "X": 145909, "Y": 171530, "ID": 21579, "Longitude": 4.31062435061353, "Latitude": 50.854146468684597, "Proximus": false, "Orange": true, "Telenet": false }, "geometry": { "type": "Point", "coordinates": [ 145909.0, 171530.0 ] } },
{ "type": "Feature", "properties": { "Adres": "Paul Deschanellaan 243", "Locatie": "", "PostcodeGemeente": "1030 Schaarbeek", "Eigenaar1": "Orange Belgium: 154B1_4", "Eigenaar2": null, "Eigenaar3": null, "X": 150612, "Y": 171637, "ID": 21580, "Longitude": 4.3774143965215302, "Latitude": 50.855122135590697, "Proximus": false, "Orange": true, "Telenet": false }, "geometry": { "type": "Point", "coordinates": [ 150612.0, 171637.0 ] } },
{ "type": "Feature", "properties": { "Adres": "Chauss?e de Tubize 65", "Locatie": "Sabiex", "PostcodeGemeente": "1420 Braine-l'Alleud", "Eigenaar1": "Telenet: _BW4521B", "Eigenaar2": "Orange Belgium: 40015W1_1", "Eigenaar3": "Proximus: 02MCP_00", "X": 149331, "Y": 154133, "ID": 21588, "Longitude": 4.35925213225216, "Latitude": 50.697767480406398, "Proximus": true, "Orange": true, "Telenet": true }, "geometry": { "type": "Point", "coordinates": [ 149331.0, 154133.0 ] } },
{ "type": "Feature", "properties": { "Adres": "Rue Sainte-Renelde", "Locatie": "Ch?teau d'eau", "PostcodeGemeente": "1430 Rebecq", "Eigenaar1": "Telenet: _BW4536A", "Eigenaar2": "Orange Belgium: 072W1_1", "Eigenaar3": "Proximus: 67RBC_00", "X": 133582, "Y": 151805, "ID": 21590, "Longitude": 4.1364378742783501, "Latitude": 50.676609366663499, "Proximus": true, "Orange": true, "Telenet": true }, "geometry": { "type": "Point", "coordinates": [ 133582.0, 151805.0 ] } },
{ "type": "Feature", "properties": { "Adres": "N25", "Locatie": "", "PostcodeGemeente": "1390 Grez-Doiceau", "Eigenaar1": "Telenet: _BW4578C", "Eigenaar2": "Orange Belgium: 156W1_5", "Eigenaar3": "Proximus: 10WAD_00", "X": 169538, "Y": 156916, "ID": 21597, "Longitude": 4.6454164465260899, "Latitude": 50.722458137505797, "Proximus": true, "Orange": true, "Telenet": true }, "geometry": { "type": "Point", "coordinates": [ 169538.0, 156916.0 ] } },
{ "type": "Feature", "properties": { "Adres": "Wittestraat 1", "Locatie": "Isomo", "PostcodeGemeente": "8501 Kortrijk", "Eigenaar1": "Orange Belgium: 30290O1_1", "Eigenaar2": null, "Eigenaar3": null, "X": 70240, "Y": 171690, "ID": 19299, "Longitude": 3.2360619964689099, "Latitude": 50.8501322607598, "Proximus": false, "Orange": true, "Telenet": false }, "geometry": { "type": "Point", "coordinates": [ 70240.0, 171690.0 ] } },
{ "type": "Feature", "properties": { "Adres": "Chauss?e de Namur 82", "Locatie": "", "PostcodeGemeente": "1320 Beauvechain", "Eigenaar1": "Telenet: _BW4579G", "Eigenaar2": "Orange Belgium: 202W1_5", "Eigenaar3": "Proximus: 10HMI_00", "X": 175551, "Y": 161809, "ID": 21598, "Longitude": 4.7309091103675804, "Latitude": 50.766211561659901, "Proximus": true, "Orange": true, "Telenet": true }, "geometry": { "type": "Point", "coordinates": [ 175551.0, 161809.0 ] } },
{ "type": "Feature", "properties": { "Adres": "Sint-Amandsesteenweg 131", "Locatie": "Watertoren", "PostcodeGemeente": "2880 Bornem", "Eigenaar1": "Telenet: _AN0170A", "Eigenaar2": "Orange Belgium: 066A1_1", "Eigenaar3": "Proximus: 03BON_00", "X": 140170, "Y": 197742, "ID": 21610, "Longitude": 4.2284202728671696, "Latitude": 51.089701166503801, "Proximus": true, "Orange": true, "Telenet": true }, "geometry": { "type": "Point", "coordinates": [ 140170.0, 197742.0 ] } },
{ "type": "Feature", "properties": { "Adres": "Kazernelaan", "Locatie": "Watertoren", "PostcodeGemeente": "3530 Houthalen-Helchteren", "Eigenaar1": "Orange Belgium: 032H1_1", "Eigenaar2": "Proximus: 11HLH_03", "Eigenaar3": null, "X": 222197, "Y": 194963, "ID": 21611, "Longitude": 5.3985840029297902, "Latitude": 51.060298873283003, "Proximus": true, "Orange": true, "Telenet": false }, "geometry": { "type": "Point", "coordinates": [ 222197.0, 194963.0 ] } },
{ "type": "Feature", "properties": { "Adres": "Anspachlaan \/ Beursplein", "Locatie": "Metro", "PostcodeGemeente": "1000 Brussel", "Eigenaar1": "Orange Belgium: 30048B5_1", "Eigenaar2": "Proximus: 02BEU_00", "Eigenaar3": null, "X": 148651, "Y": 170877, "ID": 21612, "Longitude": 4.3495673600806803, "Latitude": 50.848289042198701, "Proximus": true, "Orange": true, "Telenet": false }, "geometry": { "type": "Point", "coordinates": [ 148651.0, 170877.0 ] } },
{ "type": "Feature", "properties": { "Adres": "Maurice Lemonnierlaan", "Locatie": "Metro", "PostcodeGemeente": "1000 Brussel", "Eigenaar1": "Orange Belgium: 30050B5_1", "Eigenaar2": "Proximus: 02LEU_00", "Eigenaar3": null, "X": 148051, "Y": 169971, "ID": 21613, "Longitude": 4.3410521428073201, "Latitude": 50.84014284421, "Proximus": true, "Orange": true, "Telenet": false }, "geometry": { "type": "Point", "coordinates": [ 148051.0, 169971.0 ] } },
{ "type": "Feature", "properties": { "Adres": "Gulden-Vlieslaan", "Locatie": "Metro", "PostcodeGemeente": "1060 Sint-Gillis", "Eigenaar1": "Orange Belgium: 30052B5_1", "Eigenaar2": "Proximus: 02MUU_00", "Eigenaar3": null, "X": 148674, "Y": 169248, "ID": 21614, "Longitude": 4.3498996248023998, "Latitude": 50.8336452302201, "Proximus": true, "Orange": true, "Telenet": false }, "geometry": { "type": "Point", "coordinates": [ 148674.0, 169248.0 ] } },
{ "type": "Feature", "properties": { "Adres": "Overdektestraat \/ Europalaan", "Locatie": "Metro", "PostcodeGemeente": "1060 Sint-Gillis", "Eigenaar1": "Orange Belgium: 30051B5_1", "Eigenaar2": "Proximus: 02ZSU_00", "Eigenaar3": null, "X": 147735, "Y": 169649, "ID": 21615, "Longitude": 4.3365678329723902, "Latitude": 50.8372471777435, "Proximus": true, "Orange": true, "Telenet": false }, "geometry": { "type": "Point", "coordinates": [ 147735.0, 169649.0 ] } },
{ "type": "Feature", "properties": { "Adres": "Adolphe Maxlaan 132", "Locatie": "Hotel Manhattan", "PostcodeGemeente": "1000 Brussel", "Eigenaar1": "Orange Belgium: 30030B1_1", "Eigenaar2": "Proximus: 02KTL_02", "Eigenaar3": null, "X": 149157, "Y": 171603, "ID": 21617, "Longitude": 4.3567507859158097, "Latitude": 50.854816305856801, "Proximus": true, "Orange": true, "Telenet": false }, "geometry": { "type": "Point", "coordinates": [ 149157.0, 171603.0 ] } },
{ "type": "Feature", "properties": { "Adres": "Provooststraat 32", "Locatie": "", "PostcodeGemeente": "1050 Elsene", "Eigenaar1": "Orange Belgium: 191B1_2", "Eigenaar2": null, "Eigenaar3": null, "X": 149285, "Y": 167965, "ID": 21618, "Longitude": 4.3585754778580501, "Latitude": 50.822112669988201, "Proximus": false, "Orange": true, "Telenet": false }, "geometry": { "type": "Point", "coordinates": [ 149285.0, 167965.0 ] } },
{ "type": "Feature", "properties": { "Adres": "Laarbeeklaan 17", "Locatie": "Speedworld", "PostcodeGemeente": "1090 Jette", "Eigenaar1": "Telenet: _BX3091E", "Eigenaar2": "Orange Belgium: 105B1_3", "Eigenaar3": "Proximus: 02LEX_01", "X": 146285, "Y": 175062, "ID": 21619, "Longitude": 4.3159288197718002, "Latitude": 50.885899581053302, "Proximus": true, "Orange": true, "Telenet": true }, "geometry": { "type": "Point", "coordinates": [ 146285.0, 175062.0 ] } },
{ "type": "Feature", "properties": { "Adres": "Tremelobaan 31", "Locatie": "", "PostcodeGemeente": "3120 Tremelo", "Eigenaar1": "Orange Belgium: 061F1_1", "Eigenaar2": "Proximus: 16TRE_00", "Eigenaar3": null, "X": 173396, "Y": 186996, "ID": 21620, "Longitude": 4.7019669692505399, "Latitude": 50.992715724695202, "Proximus": true, "Orange": true, "Telenet": false }, "geometry": { "type": "Point", "coordinates": [ 173396.0, 186996.0 ] } },
{ "type": "Feature", "properties": { "Adres": "Vrijheidslaan 81", "Locatie": "", "PostcodeGemeente": "1081 Koekelberg", "Eigenaar1": "Telenet: _BX3173B", "Eigenaar2": "Orange Belgium: 30023B1_3", "Eigenaar3": null, "X": 146828, "Y": 172424, "ID": 21623, "Longitude": 4.3236680090853001, "Latitude": 50.862188706357799, "Proximus": false, "Orange": true, "Telenet": true }, "geometry": { "type": "Point", "coordinates": [ 146828.0, 172424.0 ] } },
{ "type": "Feature", "properties": { "Adres": "Westrozebekestraat 36", "Locatie": "Watertoren", "PostcodeGemeente": "8980 Zonnebeke", "Eigenaar1": "Telenet: _WV5666B", "Eigenaar2": "Orange Belgium: 222O1_1", "Eigenaar3": "Proximus: 51PSD_00", "X": 55243, "Y": 178203, "ID": 21624, "Longitude": 3.0214567713156701, "Latitude": 50.906420750488898, "Proximus": true, "Orange": true, "Telenet": true }, "geometry": { "type": "Point", "coordinates": [ 55243.0, 178203.0 ] } },
{ "type": "Feature", "properties": { "Adres": "Vaartdijk \/ Kruineikestraat", "Locatie": "Hoogspanningspyloon", "PostcodeGemeente": "3150 Haacht", "Eigenaar1": "Telenet: _VB4355A", "Eigenaar2": "Orange Belgium: 064F1_2", "Eigenaar3": null, "X": 169293, "Y": 181964, "ID": 21625, "Longitude": 4.64326070714307, "Latitude": 50.9476338719954, "Proximus": false, "Orange": true, "Telenet": true }, "geometry": { "type": "Point", "coordinates": [ 169293.0, 181964.0 ] } },
{ "type": "Feature", "properties": { "Adres": "Werchtersesteenweg 4 \/ Kloosterstraat", "Locatie": "", "PostcodeGemeente": "3150 Haacht", "Eigenaar1": "Telenet: _VB4055A", "Eigenaar2": "Orange Belgium: 057F1_2", "Eigenaar3": "Proximus: 16HAC_00", "X": 168999, "Y": 184988, "ID": 21626, "Longitude": 4.6392341115267399, "Latitude": 50.974826709656597, "Proximus": true, "Orange": true, "Telenet": true }, "geometry": { "type": "Point", "coordinates": [ 168999.0, 184988.0 ] } },
{ "type": "Feature", "properties": { "Adres": "De Rooverelaan 22", "Locatie": "Station Gare de l'Ouest", "PostcodeGemeente": "1080 Sint-Jans-Molenbeek", "Eigenaar1": "Telenet: _BX3036A", "Eigenaar2": "Orange Belgium: 532B5_4", "Eigenaar3": "Proximus: 02WST_00", "X": 146615, "Y": 171003, "ID": 21637, "Longitude": 4.3206555633919299, "Latitude": 50.849413590332098, "Proximus": true, "Orange": true, "Telenet": true }, "geometry": { "type": "Point", "coordinates": [ 146615.0, 171003.0 ] } },
{ "type": "Feature", "properties": { "Adres": "Coenraetsstraat 75", "Locatie": "", "PostcodeGemeente": "1060 Sint-Gillis", "Eigenaar1": "Orange Belgium: 30799B1_1", "Eigenaar2": null, "Eigenaar3": null, "X": 147831, "Y": 169006, "ID": 21639, "Longitude": 4.3379343281227296, "Latitude": 50.8314672370064, "Proximus": false, "Orange": true, "Telenet": false }, "geometry": { "type": "Point", "coordinates": [ 147831.0, 169006.0 ] } },
{ "type": "Feature", "properties": { "Adres": "Motstraat \/ Hasseltsesteenweg", "Locatie": "Voetbalplein KVK Beringen", "PostcodeGemeente": "3580 Beringen", "Eigenaar1": "Telenet: _LI2588D", "Eigenaar2": "Orange Belgium: 076H1_2", "Eigenaar3": "Proximus: 11BRC_01", "X": 210680, "Y": 193027, "ID": 21641, "Longitude": 5.2339931034813096, "Latitude": 51.044219673022702, "Proximus": true, "Orange": true, "Telenet": true }, "geometry": { "type": "Point", "coordinates": [ 210680.0, 193027.0 ] } },
{ "type": "Feature", "properties": { "Adres": "Senatorlaan 41", "Locatie": "", "PostcodeGemeente": "3201 Aarschot", "Eigenaar1": "Telenet: _VB4389P", "Eigenaar2": "Orange Belgium: 069F1_1", "Eigenaar3": "Proximus: 13WOL_01", "X": 188251, "Y": 191050, "ID": 21642, "Longitude": 4.9139739036417396, "Latitude": 51.028365851973803, "Proximus": true, "Orange": true, "Telenet": true }, "geometry": { "type": "Point", "coordinates": [ 188251.0, 191050.0 ] } },
{ "type": "Feature", "properties": { "Adres": "Beverststraat \/ Sint-Gertrudisplein", "Locatie": "Sint-Gertrudiskerk", "PostcodeGemeente": "3740 Bilzen", "Eigenaar1": "Telenet: _LI2644C", "Eigenaar2": "Orange Belgium: 30205H1_1", "Eigenaar3": "Proximus: 89BET_02", "X": 227762, "Y": 176266, "ID": 21645, "Longitude": 5.4739828323362598, "Latitude": 50.891526903144502, "Proximus": true, "Orange": true, "Telenet": true }, "geometry": { "type": "Point", "coordinates": [ 227762.0, 176266.0 ] } },
{ "type": "Feature", "properties": { "Adres": "Robert Tavernierlaan \/ Galgenveldstraat 16", "Locatie": "NV Van Hulle", "PostcodeGemeente": "8700 Tielt", "Eigenaar1": "Orange Belgium: 165O1_1", "Eigenaar2": "Proximus: 51TLT_00", "Eigenaar3": null, "X": 77956, "Y": 188475, "ID": 21646, "Longitude": 3.3423265659424199, "Latitude": 51.002009571956599, "Proximus": true, "Orange": true, "Telenet": false }, "geometry": { "type": "Point", "coordinates": [ 77956.0, 188475.0 ] } },
{ "type": "Feature", "properties": { "Adres": "Sint-Laurentiusplein", "Locatie": "Sint-Laurentiuskerk", "PostcodeGemeente": "8956 Heuvelland", "Eigenaar1": "Telenet: _WV5762A", "Eigenaar2": "Orange Belgium: 229O1_1", "Eigenaar3": null, "X": 41215, "Y": 164833, "ID": 21647, "Longitude": 2.82600844413862, "Latitude": 50.783800069707297, "Proximus": false, "Orange": true, "Telenet": true }, "geometry": { "type": "Point", "coordinates": [ 41215.0, 164833.0 ] } },
{ "type": "Feature", "properties": { "Adres": "Edingsesteenweg", "Locatie": "Sint-Petruskerk", "PostcodeGemeente": "9400 Ninove", "Eigenaar1": "Telenet: _OV5287J", "Eigenaar2": "Orange Belgium: 243G1_1", "Eigenaar3": "Proximus: 54DWK_00", "X": 125763, "Y": 165384, "ID": 21648, "Longitude": 4.0249264969712204, "Latitude": 50.798407682296599, "Proximus": true, "Orange": true, "Telenet": true }, "geometry": { "type": "Point", "coordinates": [ 125763.0, 165384.0 ] } },
{ "type": "Feature", "properties": { "Adres": "Abdijstraat 6", "Locatie": "", "PostcodeGemeente": "1790 Affligem", "Eigenaar1": "Orange Belgium: 30059F1_1", "Eigenaar2": null, "Eigenaar3": null, "X": 132035, "Y": 179383, "ID": 21649, "Longitude": 4.1132100319241998, "Latitude": 50.924477082124803, "Proximus": false, "Orange": true, "Telenet": false }, "geometry": { "type": "Point", "coordinates": [ 132035.0, 179383.0 ] } },
{ "type": "Feature", "properties": { "Adres": "Sint-Elooistraat 56", "Locatie": "Woon- en Zorgcentrum Sint-Eligius", "PostcodeGemeente": "9080 Lochristi", "Eigenaar1": "Orange Belgium: 281G1_1", "Eigenaar2": null, "Eigenaar3": null, "X": 117062, "Y": 199570, "ID": 21650, "Longitude": 3.89843803402497, "Latitude": 51.1052793553038, "Proximus": false, "Orange": true, "Telenet": false }, "geometry": { "type": "Point", "coordinates": [ 117062.0, 199570.0 ] } },
{ "type": "Feature", "properties": { "Adres": "Hoogstraat", "Locatie": "Watertoren", "PostcodeGemeente": "3920 Lommel", "Eigenaar1": "Telenet: _LI2664A", "Eigenaar2": "Orange Belgium: 113H1_2", "Eigenaar3": "Proximus: 11LML_00", "X": 215882, "Y": 213097, "ID": 21651, "Longitude": 5.3118008627207498, "Latitude": 51.224038852897699, "Proximus": true, "Orange": true, "Telenet": true }, "geometry": { "type": "Point", "coordinates": [ 215882.0, 213097.0 ] } },
{ "type": "Feature", "properties": { "Adres": "Nukerkeplein", "Locatie": "Onze-Lieve-Vrouwkerk", "PostcodeGemeente": "9681 Maarkedal", "Eigenaar1": "Telenet: _OV5119A", "Eigenaar2": "Orange Belgium: 206G1_2", "Eigenaar3": "Proximus: 55MAA_00", "X": 95448, "Y": 165476, "ID": 21652, "Longitude": 3.5949246594109301, "Latitude": 50.797184593323102, "Proximus": true, "Orange": true, "Telenet": true }, "geometry": { "type": "Point", "coordinates": [ 95448.0, 165476.0 ] } },
{ "type": "Feature", "properties": { "Adres": "Sint-Jansstraat 7", "Locatie": "Voetbalveld Sint-Truiden Jeugdcomplex", "PostcodeGemeente": "3800 Sint-Truiden", "Eigenaar1": "Telenet: _LI2564A", "Eigenaar2": "Orange Belgium: 094H1_3", "Eigenaar3": "Proximus: 11STN_00", "X": 207740, "Y": 168183, "ID": 21653, "Longitude": 5.1881615157493703, "Latitude": 50.8212051638885, "Proximus": true, "Orange": true, "Telenet": true }, "geometry": { "type": "Point", "coordinates": [ 207740.0, 168183.0 ] } },
{ "type": "Feature", "properties": { "Adres": "Brusselstraat 12", "Locatie": "Kerk Sint-Gaugericus", "PostcodeGemeente": "1760 Roosdaal", "Eigenaar1": "Orange Belgium: 325F1_5", "Eigenaar2": null, "Eigenaar3": null, "X": 129329, "Y": 170389, "ID": 21654, "Longitude": 4.0752283537205702, "Latitude": 50.843537392246297, "Proximus": false, "Orange": true, "Telenet": false }, "geometry": { "type": "Point", "coordinates": [ 129329.0, 170389.0 ] } },
{ "type": "Feature", "properties": { "Adres": "Bodegemstraat", "Locatie": "Hoogspanningspyloon", "PostcodeGemeente": "1740 Ternat", "Eigenaar1": "Telenet: _VB4242M", "Eigenaar2": "Orange Belgium: 329F1_3", "Eigenaar3": null, "X": 137731, "Y": 172724, "ID": 21655, "Longitude": 4.1944448596013597, "Latitude": 50.864765184243801, "Proximus": false, "Orange": true, "Telenet": true }, "geometry": { "type": "Point", "coordinates": [ 137731.0, 172724.0 ] } },
{ "type": "Feature", "properties": { "Adres": "Albertlaan 44", "Locatie": "Heilig Hartcollege", "PostcodeGemeente": "3080 Tervuren", "Eigenaar1": "Telenet: _VB4145D", "Eigenaar2": "Orange Belgium: 077F1_5", "Eigenaar3": "Proximus: 02TVN_01", "X": 159552, "Y": 168727, "ID": 21656, "Longitude": 4.5043029232064304, "Latitude": 50.828884294660398, "Proximus": true, "Orange": true, "Telenet": true }, "geometry": { "type": "Point", "coordinates": [ 159552.0, 168727.0 ] } },
{ "type": "Feature", "properties": { "Adres": "Dorp 22 \/ Kasteelstraat", "Locatie": "Sint-Stefanuskerk", "PostcodeGemeente": "1730 Asse", "Eigenaar1": "Orange Belgium: 261F1_4", "Eigenaar2": null, "Eigenaar3": null, "X": 140059, "Y": 180074, "ID": 21657, "Longitude": 4.2273151456304499, "Latitude": 50.930881200353497, "Proximus": false, "Orange": true, "Telenet": false }, "geometry": { "type": "Point", "coordinates": [ 140059.0, 180074.0 ] } },
{ "type": "Feature", "properties": { "Adres": "Vooruitgangstraat \/ Vooruitgangsstraat", "Locatie": "Metro", "PostcodeGemeente": "1030 Schaarbeek \/ 1210 Sint-Joost-ten-Node", "Eigenaar1": "Orange Belgium: 30046B5_1", "Eigenaar2": "Proximus: 02NOU_00", "Eigenaar3": null, "X": 149464, "Y": 172303, "ID": 21659, "Longitude": 4.3611098495465503, "Latitude": 50.861109243634097, "Proximus": true, "Orange": true, "Telenet": false }, "geometry": { "type": "Point", "coordinates": [ 149464.0, 172303.0 ] } },
{ "type": "Feature", "properties": { "Adres": "Tervurenlaan", "Locatie": "Metro", "PostcodeGemeente": "1040 Etterbeek", "Eigenaar1": "Orange Belgium: 30039B5_1", "Eigenaar2": "Proximus: 02MEU_00", "Eigenaar3": null, "X": 152063, "Y": 169924, "ID": 21660, "Longitude": 4.3980115756136797, "Latitude": 50.839719777207897, "Proximus": true, "Orange": true, "Telenet": false }, "geometry": { "type": "Point", "coordinates": [ 152063.0, 169924.0 ] } },
{ "type": "Feature", "properties": { "Adres": "Slachterijstraat 127", "Locatie": "De Vleestuin", "PostcodeGemeente": "2260 Westerlo", "Eigenaar1": "Telenet: _AN0327B", "Eigenaar2": "Orange Belgium: 292A1_8", "Eigenaar3": "Proximus: 14ZPW_02", "X": 184967, "Y": 199551, "ID": 21662, "Longitude": 4.8679790295499696, "Latitude": 51.104986142452397, "Proximus": true, "Orange": true, "Telenet": true }, "geometry": { "type": "Point", "coordinates": [ 184967.0, 199551.0 ] } },
{ "type": "Feature", "properties": { "Adres": "Veldstraat 82", "Locatie": "", "PostcodeGemeente": "2491 Balen", "Eigenaar1": "Telenet: _AN0360G", "Eigenaar2": "Orange Belgium: 288A1_1", "Eigenaar3": "Proximus: 14BOL_01", "X": 204972, "Y": 202910, "ID": 21664, "Longitude": 5.1540978792657501, "Latitude": 51.1336213131883, "Proximus": true, "Orange": true, "Telenet": true }, "geometry": { "type": "Point", "coordinates": [ 204972.0, 202910.0 ] } },
{ "type": "Feature", "properties": { "Adres": "Louizaplein \/ Louizalaan", "Locatie": "Metro Louise", "PostcodeGemeente": "1000 Brussel \/ 1050 Brussel", "Eigenaar1": "Orange Belgium: 30005B5_1 \/ 30053B5_1", "Eigenaar2": "Proximus: 02LZU_00", "Eigenaar3": null, "X": 149035, "Y": 169484, "ID": 21665, "Longitude": 4.3550236512218996, "Latitude": 50.835767379499302, "Proximus": true, "Orange": true, "Telenet": false }, "geometry": { "type": "Point", "coordinates": [ 149035.0, 169484.0 ] } },
{ "type": "Feature", "properties": { "Adres": "Grote Markt 80", "Locatie": "Sint-Pieterskerk", "PostcodeGemeente": "2300 Turnhout", "Eigenaar1": "Telenet: _AN0245D", "Eigenaar2": "Orange Belgium: 444A1_2", "Eigenaar3": "Proximus: 14GAS_01", "X": 190413, "Y": 223860, "ID": 21670, "Longitude": 4.9484458072568103, "Latitude": 51.323123161134497, "Proximus": true, "Orange": true, "Telenet": true },