{
"type": "FeatureCollection",
"crs": { "type": "name", "properties": { "name": "urn:ogc:def:crs:EPSG::31370" } },
"features": [
{ "type": "Feature", "properties": { "Adres": "Grote Baan 115", "Locatie": "Lambrecht Gebroeders BVBA", "PostcodeGemeente": "9310 Aalst", "Eigenaar1": "Telenet: _OV5397C", "Eigenaar2": "Orange Belgium: 357G1_2", "Eigenaar3": "Proximus: 53HDR_02", "X": 128474, "Y": 184046, "ID": 21003, "Longitude": 4.0622894895597597, "Latitude": 50.966272623285803, "Proximus": true, "Orange": true, "Telenet": true }, "geometry": { "type": "Point", "coordinates": [ 128474.0, 184046.0 ] } },
{ "type": "Feature", "properties": { "Adres": "Waterlose Steenweg 363 \/ Brugmannlaan 2", "Locatie": "", "PostcodeGemeente": "1060 Sint-Gillis", "Eigenaar1": "Telenet: _BX3061L", "Eigenaar2": "Orange Belgium: 31036B1_2", "Eigenaar3": "Proximus: 02CAM_00", "X": 148955, "Y": 168008, "ID": 21004, "Longitude": 4.3538920202649303, "Latitude": 50.8224987304094, "Proximus": true, "Orange": true, "Telenet": true }, "geometry": { "type": "Point", "coordinates": [ 148955.0, 168008.0 ] } },
{ "type": "Feature", "properties": { "Adres": "Leopold II Laan 85", "Locatie": "Sint-Niklaaskerk", "PostcodeGemeente": "8670 Koksijde", "Eigenaar1": "Telenet: _WV5820A", "Eigenaar2": "Orange Belgium: 32419O1_1", "Eigenaar3": "Proximus: 58OOS_01", "X": 31681, "Y": 202483, "ID": 21008, "Longitude": 2.6786963593569499, "Latitude": 51.120296819530502, "Proximus": true, "Orange": true, "Telenet": true }, "geometry": { "type": "Point", "coordinates": [ 31681.0, 202483.0 ] } },
{ "type": "Feature", "properties": { "Adres": "Bevel-Dorp 84 \/ Bevels Heerdplein", "Locatie": "Onze-Lieve-Vrouw Tenhemelopgenomenkerk", "PostcodeGemeente": "2560 Nijlen", "Eigenaar1": "Telenet: _AN0378A", "Eigenaar2": "Orange Belgium: 483A1_2", "Eigenaar3": "Proximus: 03BVL_01", "X": 171889, "Y": 203050, "ID": 21011, "Longitude": 4.6814669340978003, "Latitude": 51.137080837860999, "Proximus": true, "Orange": true, "Telenet": true }, "geometry": { "type": "Point", "coordinates": [ 171889.0, 203050.0 ] } },
{ "type": "Feature", "properties": { "Adres": "Steenweg op Gent 2", "Locatie": "", "PostcodeGemeente": "1080 Sint-Jans-Molenbeek", "Eigenaar1": "Telenet: _BX3180B", "Eigenaar2": "Orange Belgium: 316B1_1", "Eigenaar3": "Proximus: 02VLA_00", "X": 148018, "Y": 171434, "ID": 21013, "Longitude": 4.3405760165496003, "Latitude": 50.853294455137501, "Proximus": true, "Orange": true, "Telenet": true }, "geometry": { "type": "Point", "coordinates": [ 148018.0, 171434.0 ] } },
{ "type": "Feature", "properties": { "Adres": "Lion d'Orweg", "Locatie": "Hoogspanningspyloon", "PostcodeGemeente": "9300 Aalst", "Eigenaar1": "Telenet: _OV5145C", "Eigenaar2": "Proximus: 53HHL_02", "Eigenaar3": null, "X": 126970, "Y": 182637, "ID": 21016, "Longitude": 4.04096799335447, "Latitude": 50.953549188126402, "Proximus": true, "Orange": false, "Telenet": true }, "geometry": { "type": "Point", "coordinates": [ 126970.0, 182637.0 ] } },
{ "type": "Feature", "properties": { "Adres": "Berchemstadionstraat 75 \/ Roderveldlaan", "Locatie": "Ludo Coeckstadion", "PostcodeGemeente": "2600 Antwerpen", "Eigenaar1": "Telenet: _AN0017A", "Eigenaar2": "Proximus: 03HRI_03", "Eigenaar3": null, "X": 155089, "Y": 208599, "ID": 21017, "Longitude": 4.4415135781053303, "Latitude": 51.187351259359197, "Proximus": true, "Orange": false, "Telenet": true }, "geometry": { "type": "Point", "coordinates": [ 155089.0, 208599.0 ] } },
{ "type": "Feature", "properties": { "Adres": "Drie Bisdommenstraat", "Locatie": "", "PostcodeGemeente": "7783 Komen-Waasten", "Eigenaar1": "Telenet: _HT1803P", "Eigenaar2": "Orange Belgium: 280C1_4", "Eigenaar3": "Proximus: 56LBI_02", "X": 45318, "Y": 156399, "ID": 21018, "Longitude": 2.8865658226112001, "Latitude": 50.708748148267397, "Proximus": true, "Orange": true, "Telenet": true }, "geometry": { "type": "Point", "coordinates": [ 45318.0, 156399.0 ] } },
{ "type": "Feature", "properties": { "Adres": "Huiveldestraat \/ Huiveldestraat", "Locatie": "Hoogspanningspyloon", "PostcodeGemeente": "9200 Dendermonde \/ 9240 Zele", "Eigenaar1": "Telenet: _OV5245A", "Eigenaar2": "Proximus: 52DIJ_04", "Eigenaar3": null, "X": 129611, "Y": 193620, "ID": 21020, "Longitude": 4.0779418489677797, "Latitude": 51.052374014989901, "Proximus": true, "Orange": false, "Telenet": true }, "geometry": { "type": "Point", "coordinates": [ 129611.0, 193620.0 ] } },
{ "type": "Feature", "properties": { "Adres": "Prins Albertstraat 33", "Locatie": "Solvay", "PostcodeGemeente": "1050 Elsene", "Eigenaar1": "Telenet: _BX3179B", "Eigenaar2": "Orange Belgium: 31109B1_4", "Eigenaar3": "Proximus: 02SLV_00", "X": 149535, "Y": 169330, "ID": 21046, "Longitude": 4.3621218240215898, "Latitude": 50.834383660428202, "Proximus": true, "Orange": true, "Telenet": true }, "geometry": { "type": "Point", "coordinates": [ 149535.0, 169330.0 ] } },
{ "type": "Feature", "properties": { "Adres": "Parc Industriel Sud 135 \/ Boulevard de l'Europe 135", "Locatie": "", "PostcodeGemeente": "1301 Wavre", "Eigenaar1": "Telenet: _BW4609B", "Eigenaar2": "Orange Belgium: 034W1_2", "Eigenaar3": "Proximus: 10WLI_01", "X": 165411, "Y": 154610, "ID": 21048, "Longitude": 4.58687461620534, "Latitude": 50.701851674498698, "Proximus": true, "Orange": true, "Telenet": true }, "geometry": { "type": "Point", "coordinates": [ 165411.0, 154610.0 ] } },
{ "type": "Feature", "properties": { "Adres": "Spalbeekstraat 53", "Locatie": "Voetbalveld K. Sporting Spalbeek", "PostcodeGemeente": "3510 Hasselt", "Eigenaar1": "Telenet: _LI2536B", "Eigenaar2": "Orange Belgium: 105H1_2", "Eigenaar3": "Proximus: 11SPA_02", "X": 210400, "Y": 182939, "ID": 21051, "Longitude": 5.22833437955875, "Latitude": 50.953573327020102, "Proximus": true, "Orange": true, "Telenet": true }, "geometry": { "type": "Point", "coordinates": [ 210400.0, 182939.0 ] } },
{ "type": "Feature", "properties": { "Adres": "Hogeschoollaan 38", "Locatie": "", "PostcodeGemeente": "1050 Elsene", "Eigenaar1": "Telenet: _BX3555A", "Eigenaar2": "Proximus: 02HGS_00", "Eigenaar3": null, "X": 151368, "Y": 167170, "ID": 21054, "Longitude": 4.3881340007007701, "Latitude": 50.814964727135802, "Proximus": true, "Orange": false, "Telenet": true }, "geometry": { "type": "Point", "coordinates": [ 151368.0, 167170.0 ] } },
{ "type": "Feature", "properties": { "Adres": "Ambiorixsquare 52", "Locatie": "", "PostcodeGemeente": "1000 Brussel", "Eigenaar1": "Telenet: _BX3156A", "Eigenaar2": "Orange Belgium: 157B1_4", "Eigenaar3": "Proximus: 02SQA_00", "X": 150945, "Y": 170815, "ID": 21063, "Longitude": 4.3821415432420396, "Latitude": 50.847732412625902, "Proximus": true, "Orange": true, "Telenet": true }, "geometry": { "type": "Point", "coordinates": [ 150945.0, 170815.0 ] } },
{ "type": "Feature", "properties": { "Adres": "Van Bovenstraat", "Locatie": "", "PostcodeGemeente": "7700 Moeskroen", "Eigenaar1": "Telenet: _HT1733D", "Eigenaar2": "Orange Belgium: 123C1_1", "Eigenaar3": "Proximus: 56LUI_02", "X": 71112, "Y": 158637, "ID": 21064, "Longitude": 3.2512327385397701, "Latitude": 50.732923232175402, "Proximus": true, "Orange": true, "Telenet": true }, "geometry": { "type": "Point", "coordinates": [ 71112.0, 158637.0 ] } },
{ "type": "Feature", "properties": { "Adres": "De Brulen \/ Voorheide", "Locatie": "Sint-Jozef Voorheidekerk", "PostcodeGemeente": "2370 Arendonk", "Eigenaar1": "Telenet: _AN0281B", "Eigenaar2": "Orange Belgium: 063A1_2", "Eigenaar3": "Proximus: 14VRH_01", "X": 200968, "Y": 225516, "ID": 21065, "Longitude": 5.1000812506573299, "Latitude": 51.337168377885703, "Proximus": true, "Orange": true, "Telenet": true }, "geometry": { "type": "Point", "coordinates": [ 200968.0, 225516.0 ] } },
{ "type": "Feature", "properties": { "Adres": "Pijlstraat", "Locatie": "NMBS Tractiestation", "PostcodeGemeente": "9160 Lokeren", "Eigenaar1": "Telenet: _OV5303B", "Eigenaar2": "Proximus: 91BEG_02", "Eigenaar3": null, "X": 124865, "Y": 200992, "ID": 21066, "Longitude": 4.0097487586292004, "Latitude": 51.118452547535497, "Proximus": true, "Orange": false, "Telenet": true }, "geometry": { "type": "Point", "coordinates": [ 124865.0, 200992.0 ] } },
{ "type": "Feature", "properties": { "Adres": "Onderrichtsstraat 65 \/ Tribunestraat 10", "Locatie": "", "PostcodeGemeente": "1000 Brussel", "Eigenaar1": "Telenet: _BX3102G", "Eigenaar2": "Orange Belgium: 30039B1_1", "Eigenaar3": "Proximus: 02PLS_01", "X": 149762, "Y": 170935, "ID": 21072, "Longitude": 4.3653431563047302, "Latitude": 50.848811882003702, "Proximus": true, "Orange": true, "Telenet": true }, "geometry": { "type": "Point", "coordinates": [ 149762.0, 170935.0 ] } },
{ "type": "Feature", "properties": { "Adres": "De Neckstraat 22", "Locatie": "Res. Victoria", "PostcodeGemeente": "1081 Koekelberg", "Eigenaar1": "Telenet: _BX3010D", "Eigenaar2": "Orange Belgium: 30011B1_1", "Eigenaar3": "Proximus: 02PSI_00", "X": 147292, "Y": 172763, "ID": 21073, "Longitude": 4.33025624219382, "Latitude": 50.865238489909302, "Proximus": true, "Orange": true, "Telenet": true }, "geometry": { "type": "Point", "coordinates": [ 147292.0, 172763.0 ] } },
{ "type": "Feature", "properties": { "Adres": "Beverenstraat 17", "Locatie": "", "PostcodeGemeente": "8540 Deerlijk", "Eigenaar1": "Telenet: _WV5801M", "Eigenaar2": "Orange Belgium: 139O1_4", "Eigenaar3": "Proximus: 56DEE_01", "X": 78277, "Y": 172056, "ID": 21079, "Longitude": 3.3501078796352601, "Latitude": 50.854468585329499, "Proximus": true, "Orange": true, "Telenet": true }, "geometry": { "type": "Point", "coordinates": [ 78277.0, 172056.0 ] } },
{ "type": "Feature", "properties": { "Adres": "Industriepark Klein Frankrijk 1", "Locatie": "Associated Weavers Europe N.V.", "PostcodeGemeente": "9600 Ronse", "Eigenaar1": "Telenet: _OV5347M", "Eigenaar2": "Orange Belgium: 209G1_1", "Eigenaar3": "Proximus: 55KFR_01", "X": 98593, "Y": 160196, "ID": 21080, "Longitude": 3.6402668503832998, "Latitude": 50.750007655077297, "Proximus": true, "Orange": true, "Telenet": true }, "geometry": { "type": "Point", "coordinates": [ 98593.0, 160196.0 ] } },
{ "type": "Feature", "properties": { "Adres": "Chauss?e de Namur \/ Rue Haut Chemin", "Locatie": "Ch?teau d'eau", "PostcodeGemeente": "1315 Incourt \/ 1370 Jodoigne", "Eigenaar1": "Telenet: _BW4583A", "Eigenaar2": "Proximus: 10INC_01", "Eigenaar3": null, "X": 180518, "Y": 155650, "ID": 21083, "Longitude": 4.8008067084692501, "Latitude": 50.710605373982503, "Proximus": true, "Orange": false, "Telenet": true }, "geometry": { "type": "Point", "coordinates": [ 180518.0, 155650.0 ] } },
{ "type": "Feature", "properties": { "Adres": "Veestraat", "Locatie": "Hoogspanningspyloon", "PostcodeGemeente": "3680 Maaseik", "Eigenaar1": "Telenet: _LI2684X", "Eigenaar2": "Proximus: 89VER_01", "Eigenaar3": null, "X": 243466, "Y": 200793, "ID": 21088, "Longitude": 5.7034143753824704, "Latitude": 51.109651426700701, "Proximus": true, "Orange": false, "Telenet": true }, "geometry": { "type": "Point", "coordinates": [ 243466.0, 200793.0 ] } },
{ "type": "Feature", "properties": { "Adres": "Vliegveldweg 17", "Locatie": "VRT Zendstation Egem", "PostcodeGemeente": "8740 Pittem", "Eigenaar1": "Telenet: _WV5638A", "Eigenaar2": "Orange Belgium: 32045O1_1", "Eigenaar3": "Proximus: 51BRT_00", "X": 70501, "Y": 190777, "ID": 21109, "Longitude": 3.2356318617088, "Latitude": 51.021725563448904, "Proximus": true, "Orange": true, "Telenet": true }, "geometry": { "type": "Point", "coordinates": [ 70501.0, 190777.0 ] } },
{ "type": "Feature", "properties": { "Adres": "Place des Sports 1 \/ Fond Jean P?ques 1", "Locatie": "Centre Sportif de Blocry", "PostcodeGemeente": "1348 Ottignies-Louvain-la-Neuve", "Eigenaar1": "Telenet: _BW4875P", "Eigenaar2": "Orange Belgium: 024W1_1", "Eigenaar3": "Proximus: 10RAP_00", "X": 166528, "Y": 151170, "ID": 21111, "Longitude": 4.60253282130759, "Latitude": 50.670896130878099, "Proximus": true, "Orange": true, "Telenet": true }, "geometry": { "type": "Point", "coordinates": [ 166528.0, 151170.0 ] } },
{ "type": "Feature", "properties": { "Adres": "Industriepark 15", "Locatie": "", "PostcodeGemeente": "9820 Merelbeke", "Eigenaar1": "Telenet: _OV5255P", "Eigenaar2": "Proximus: 91BOH_03", "Eigenaar3": null, "X": 107794, "Y": 186665, "ID": 21112, "Longitude": 3.76760646081022, "Latitude": 50.988679209890499, "Proximus": true, "Orange": false, "Telenet": true }, "geometry": { "type": "Point", "coordinates": [ 107794.0, 186665.0 ] } },
{ "type": "Feature", "properties": { "Adres": "Bruggestraat 163", "Locatie": "Watertoren", "PostcodeGemeente": "8820 Torhout", "Eigenaar1": "Telenet: _WV5597A", "Eigenaar2": "Proximus: 50TWA_01", "Eigenaar3": null, "X": 62164, "Y": 197456, "ID": 21114, "Longitude": 3.1152198913103102, "Latitude": 51.080550416508402, "Proximus": true, "Orange": false, "Telenet": true }, "geometry": { "type": "Point", "coordinates": [ 62164.0, 197456.0 ] } },
{ "type": "Feature", "properties": { "Adres": "Zarlardingeplein", "Locatie": "Onze-Lieve-Vrouwekerk", "PostcodeGemeente": "9500 Geraardsbergen", "Eigenaar1": "Telenet: _OV5212Q", "Eigenaar2": "Orange Belgium: C1-451-G1 & C1-32451-G1", "Eigenaar3": "Proximus: 54ZAR_02", "X": 111886, "Y": 161427, "ID": 21115, "Longitude": 3.82849858465875, "Latitude": 50.762094142366401, "Proximus": true, "Orange": true, "Telenet": true }, "geometry": { "type": "Point", "coordinates": [ 111886.0, 161427.0 ] } },
{ "type": "Feature", "properties": { "Adres": "Dorpsstraat 26", "Locatie": "", "PostcodeGemeente": "3830 Wellen", "Eigenaar1": "Telenet: _LI2539D", "Eigenaar2": "Orange Belgium: 097H1_1", "Eigenaar3": "Proximus: 12WEL_01", "X": 217991, "Y": 170582, "ID": 21116, "Longitude": 5.3340700163116299, "Latitude": 50.841661266301998, "Proximus": true, "Orange": true, "Telenet": true }, "geometry": { "type": "Point", "coordinates": [ 217991.0, 170582.0 ] } },
{ "type": "Feature", "properties": { "Adres": "Louizalaan 475", "Locatie": "", "PostcodeGemeente": "1050 Brussel", "Eigenaar1": "Telenet: _BX3053C", "Eigenaar2": "Orange Belgium: 069B1_2", "Eigenaar3": "Proximus: 02BCB_01", "X": 150164, "Y": 167418, "ID": 21117, "Longitude": 4.3710498045190498, "Latitude": 50.817195789294601, "Proximus": true, "Orange": true, "Telenet": true }, "geometry": { "type": "Point", "coordinates": [ 150164.0, 167418.0 ] } },
{ "type": "Feature", "properties": { "Adres": "Velle 123", "Locatie": "Sint-Jozefkerk", "PostcodeGemeente": "9140 Temse", "Eigenaar1": "Telenet: _OV5380A", "Eigenaar2": "Orange Belgium: 345G1_1", "Eigenaar3": "Proximus: 03VEL_01", "X": 138715, "Y": 205616, "ID": 21118, "Longitude": 4.2074092992497398, "Latitude": 51.160451435283598, "Proximus": true, "Orange": true, "Telenet": true }, "geometry": { "type": "Point", "coordinates": [ 138715.0, 205616.0 ] } },
{ "type": "Feature", "properties": { "Adres": "Komvest 34", "Locatie": "Residentie &quot;De Veste&quot;", "PostcodeGemeente": "8000 Brugge", "Eigenaar1": "Telenet: _WV5893A", "Eigenaar2": null, "Eigenaar3": null, "X": 69942, "Y": 212811, "ID": 19841, "Longitude": 3.2228193089066002, "Latitude": 51.219682184145597, "Proximus": false, "Orange": false, "Telenet": true }, "geometry": { "type": "Point", "coordinates": [ 69942.0, 212811.0 ] } },
{ "type": "Feature", "properties": { "Adres": "Paquaylaan 6", "Locatie": "CV Tongershuis", "PostcodeGemeente": "3700 Tongeren", "Eigenaar1": "Telenet: _LI2624B", "Eigenaar2": null, "Eigenaar3": null, "X": 226188, "Y": 163037, "ID": 21123, "Longitude": 5.4488777309987704, "Latitude": 50.772825830629998, "Proximus": false, "Orange": false, "Telenet": true }, "geometry": { "type": "Point", "coordinates": [ 226188.0, 163037.0 ] } },
{ "type": "Feature", "properties": { "Adres": "Leuerbroek 1014 \/ Weertersteenweg", "Locatie": "De Lijn", "PostcodeGemeente": "3640 Kinrooi", "Eigenaar1": "Telenet: _LI2611D", "Eigenaar2": "Orange Belgium: 021H1_2", "Eigenaar3": "Proximus: 89KIN_01", "X": 246681, "Y": 204196, "ID": 21124, "Longitude": 5.7502183283453103, "Latitude": 51.1397059737333, "Proximus": true, "Orange": true, "Telenet": true }, "geometry": { "type": "Point", "coordinates": [ 246681.0, 204196.0 ] } },
{ "type": "Feature", "properties": { "Adres": "Kerkstraat", "Locatie": "Onze-Lieve-Vrouw Hemelvaart Nieuwmoerkerk", "PostcodeGemeente": "2920 Kalmthout", "Eigenaar1": "Telenet: _AN0301G", "Eigenaar2": "Orange Belgium: 259A1_1", "Eigenaar3": "Proximus: 03NWR_01", "X": 160394, "Y": 235915, "ID": 21125, "Longitude": 4.5181794283032204, "Latitude": 51.432796873617001, "Proximus": true, "Orange": true, "Telenet": true }, "geometry": { "type": "Point", "coordinates": [ 160394.0, 235915.0 ] } },
{ "type": "Feature", "properties": { "Adres": "Agoralaan", "Locatie": "Limburgs Universitair Centrum", "PostcodeGemeente": "3590 Diepenbeek", "Eigenaar1": "Telenet: _LI2878P", "Eigenaar2": "Orange Belgium: 30160H1_1", "Eigenaar3": "Proximus: 11LUN_02", "X": 221977, "Y": 180059, "ID": 21126, "Longitude": 5.3925132687402799, "Latitude": 50.926365831307201, "Proximus": true, "Orange": true, "Telenet": true }, "geometry": { "type": "Point", "coordinates": [ 221977.0, 180059.0 ] } },
{ "type": "Feature", "properties": { "Adres": "Lindestraat 1", "Locatie": "Sint-Annakerk", "PostcodeGemeente": "9820 Merelbeke", "Eigenaar1": "Telenet: _OV5323A", "Eigenaar2": "Proximus: 91BOT_02", "Eigenaar3": null, "X": 106919, "Y": 183827, "ID": 21127, "Longitude": 3.7554785887290598, "Latitude": 50.963104613380303, "Proximus": true, "Orange": false, "Telenet": true }, "geometry": { "type": "Point", "coordinates": [ 106919.0, 183827.0 ] } },
{ "type": "Feature", "properties": { "Adres": "Werviksestraat 94", "Locatie": "", "PostcodeGemeente": "8902 Ieper", "Eigenaar1": "Telenet: _WV5740A", "Eigenaar2": "Proximus: 57ZIL_00", "Eigenaar3": null, "X": 48432, "Y": 169695, "ID": 21130, "Longitude": 2.9269895018608398, "Latitude": 50.828802459707099, "Proximus": true, "Orange": false, "Telenet": true }, "geometry": { "type": "Point", "coordinates": [ 48432.0, 169695.0 ] } },
{ "type": "Feature", "properties": { "Adres": "Donklaan 117", "Locatie": "", "PostcodeGemeente": "9290 Berlare", "Eigenaar1": "Telenet: _OV5250P", "Eigenaar2": "Proximus: 91BOO_01", "Eigenaar3": null, "X": 122868, "Y": 192434, "ID": 21142, "Longitude": 3.9818645913536601, "Latitude": 51.0414369867121, "Proximus": true, "Orange": false, "Telenet": true }, "geometry": { "type": "Point", "coordinates": [ 122868.0, 192434.0 ] } },
{ "type": "Feature", "properties": { "Adres": "Bergensesteenweg 1051", "Locatie": "", "PostcodeGemeente": "1070 Anderlecht", "Eigenaar1": "Telenet: _BX3020B", "Eigenaar2": "Proximus: 02BIZ_00", "Eigenaar3": null, "X": 144884, "Y": 168251, "ID": 21144, "Longitude": 4.2961131728666002, "Latitude": 50.8246619330423, "Proximus": true, "Orange": false, "Telenet": true }, "geometry": { "type": "Point", "coordinates": [ 144884.0, 168251.0 ] } },
{ "type": "Feature", "properties": { "Adres": "Leefdaal \/ Autoweg 12", "Locatie": "Sarens NV", "PostcodeGemeente": "1861 Meise", "Eigenaar1": "Telenet: _VB4024G", "Eigenaar2": "Orange Belgium: 408F1_1", "Eigenaar3": "Proximus: 52SAR_00", "X": 146243, "Y": 186641, "ID": 21145, "Longitude": 4.3152141023536403, "Latitude": 50.9899858304261, "Proximus": true, "Orange": true, "Telenet": true }, "geometry": { "type": "Point", "coordinates": [ 146243.0, 186641.0 ] } },
{ "type": "Feature", "properties": { "Adres": "Lanklaarsesteenweg", "Locatie": "", "PostcodeGemeente": "3668 As", "Eigenaar1": "Telenet: _LI2540C", "Eigenaar2": "Proximus: 89NIE_00", "Eigenaar3": null, "X": 236899, "Y": 189143, "ID": 21147, "Longitude": 5.6068808791812801, "Latitude": 51.005969812617401, "Proximus": true, "Orange": false, "Telenet": true }, "geometry": { "type": "Point", "coordinates": [ 236899.0, 189143.0 ] } },
{ "type": "Feature", "properties": { "Adres": "Leffingestraat 1 \/ Edith Cavellstraat 19", "Locatie": "Vesalius Hogeschool", "PostcodeGemeente": "8400 Oostende", "Eigenaar1": "Telenet: _WV5854D", "Eigenaar2": "Orange Belgium: 245O1_1", "Eigenaar3": "Proximus: 59VNL_01", "X": 48439, "Y": 213414, "ID": 21149, "Longitude": 2.9149386235220098, "Latitude": 51.2217176290739, "Proximus": true, "Orange": true, "Telenet": true }, "geometry": { "type": "Point", "coordinates": [ 48439.0, 213414.0 ] } },
{ "type": "Feature", "properties": { "Adres": "Louizalaan 250", "Locatie": "", "PostcodeGemeente": "1050 Brussel", "Eigenaar1": "Telenet: _BX3016E", "Eigenaar2": null, "Eigenaar3": null, "X": 149848, "Y": 168310, "ID": 21152, "Longitude": 4.3665654281715298, "Latitude": 50.825214462556602, "Proximus": false, "Orange": false, "Telenet": true }, "geometry": { "type": "Point", "coordinates": [ 149848.0, 168310.0 ] } },
{ "type": "Feature", "properties": { "Adres": "Maliestraat 13", "Locatie": "Novoholding SA", "PostcodeGemeente": "1050 Elsene", "Eigenaar1": "Telenet: _BX3214B", "Eigenaar2": "Proximus: 02KLP_00", "Eigenaar3": null, "X": 149427, "Y": 168120, "ID": 21153, "Longitude": 4.3605904682750003, "Latitude": 50.823506187459003, "Proximus": true, "Orange": false, "Telenet": true }, "geometry": { "type": "Point", "coordinates": [ 149427.0, 168120.0 ] } },
{ "type": "Feature", "properties": { "Adres": "Brugmannlaan 163", "Locatie": "", "PostcodeGemeente": "1190 Vorst", "Eigenaar1": "Telenet: _BX3546E", "Eigenaar2": "Proximus: 02BRU_00", "Eigenaar3": null, "X": 148670, "Y": 167415, "ID": 21154, "Longitude": 4.3498493501109001, "Latitude": 50.817167342532699, "Proximus": true, "Orange": false, "Telenet": true }, "geometry": { "type": "Point", "coordinates": [ 148670.0, 167415.0 ] } },
{ "type": "Feature", "properties": { "Adres": "Georges Marlowsquare 3", "Locatie": "", "PostcodeGemeente": "1180 Ukkel", "Eigenaar1": "Telenet: _BX3078H", "Eigenaar2": "Orange Belgium: 195B1_4", "Eigenaar3": "Proximus: 02PED_01", "X": 148048, "Y": 165692, "ID": 21159, "Longitude": 4.3410320169270298, "Latitude": 50.801676666516997, "Proximus": true, "Orange": true, "Telenet": true }, "geometry": { "type": "Point", "coordinates": [ 148048.0, 165692.0 ] } },
{ "type": "Feature", "properties": { "Adres": "Reties Heike 4", "Locatie": "", "PostcodeGemeente": "2460 Kasterlee", "Eigenaar1": "Telenet: _AN0152C", "Eigenaar2": "Proximus: 14KAR_01", "Eigenaar3": null, "X": 194860, "Y": 215632, "ID": 21161, "Longitude": 5.0112121973610497, "Latitude": 51.248842017223403, "Proximus": true, "Orange": false, "Telenet": true }, "geometry": { "type": "Point", "coordinates": [ 194860.0, 215632.0 ] } },
{ "type": "Feature", "properties": { "Adres": "Vierwindenstraat 137", "Locatie": "", "PostcodeGemeente": "1080 Sint-Jans-Molenbeek", "Eigenaar1": "Telenet: _BX3172A", "Eigenaar2": "Orange Belgium: 30823B1_1", "Eigenaar3": "Proximus: 02SJB_00", "X": 147106, "Y": 171191, "ID": 21162, "Longitude": 4.3276263109694897, "Latitude": 50.851106132276797, "Proximus": true, "Orange": true, "Telenet": true }, "geometry": { "type": "Point", "coordinates": [ 147106.0, 171191.0 ] } },
{ "type": "Feature", "properties": { "Adres": "Dorpsstraat 161", "Locatie": "Braet - Devos N.V.", "PostcodeGemeente": "9980 Sint-Laureins", "Eigenaar1": "Telenet: _OV5277D", "Eigenaar2": "Orange Belgium: 055G1_1", "Eigenaar3": "Proximus: 91LAU_02", "X": 91394, "Y": 214798, "ID": 21164, "Longitude": 3.5295190990273002, "Latitude": 51.240117881782801, "Proximus": true, "Orange": true, "Telenet": true }, "geometry": { "type": "Point", "coordinates": [ 91394.0, 214798.0 ] } },
{ "type": "Feature", "properties": { "Adres": "Lotenhullestraat", "Locatie": "Station Bellem", "PostcodeGemeente": "9881 Aalter", "Eigenaar1": "Telenet: _OV5288D", "Eigenaar2": "Orange Belgium: 286G1_1 \/ 32286G1_2", "Eigenaar3": "Proximus: 91BEL_01", "X": 88190, "Y": 197481, "ID": 21175, "Longitude": 3.48658946841697, "Latitude": 51.084139485275699, "Proximus": true, "Orange": true, "Telenet": true }, "geometry": { "type": "Point", "coordinates": [ 88190.0, 197481.0 ] } },
{ "type": "Feature", "properties": { "Adres": "Gentstraat 129", "Locatie": "Steenbakkerij A.M.T.", "PostcodeGemeente": "9140 Temse", "Eigenaar1": "Telenet: _OV5348C", "Eigenaar2": "Orange Belgium: 342G1_1", "Eigenaar3": "Proximus: 03TIE_01", "X": 135907, "Y": 200772, "ID": 21189, "Longitude": 4.1674572600387201, "Latitude": 51.116849076803902, "Proximus": true, "Orange": true, "Telenet": true }, "geometry": { "type": "Point", "coordinates": [ 135907.0, 200772.0 ] } },
{ "type": "Feature", "properties": { "Adres": "Kortrijksestraat 159", "Locatie": "", "PostcodeGemeente": "8520 Kuurne", "Eigenaar1": "Telenet: _WV5579E", "Eigenaar2": "Orange Belgium: 30310O1_3", "Eigenaar3": "Proximus: 56KGB_01", "X": 73077, "Y": 170974, "ID": 21190, "Longitude": 3.2764935292114701, "Latitude": 50.844078565478, "Proximus": true, "Orange": true, "Telenet": true }, "geometry": { "type": "Point", "coordinates": [ 73077.0, 170974.0 ] } },
{ "type": "Feature", "properties": { "Adres": "Molenstraat 1 \/ Kemzekestraat 1", "Locatie": "Sint-Jacobuskerk", "PostcodeGemeente": "9190 Stekene", "Eigenaar1": "Telenet: _OV5312A", "Eigenaar2": "Orange Belgium: 346G1_1", "Eigenaar3": "Proximus: 03KZK_02", "X": 129733, "Y": 210818, "ID": 21191, "Longitude": 4.0787249225684699, "Latitude": 51.206964377430801, "Proximus": true, "Orange": true, "Telenet": true }, "geometry": { "type": "Point", "coordinates": [ 129733.0, 210818.0 ] } },
{ "type": "Feature", "properties": { "Adres": "Sportlaan 28 \/ Keibergstraat 32", "Locatie": "", "PostcodeGemeente": "8480 Ichtegem", "Eigenaar1": "Telenet: _WV5596B", "Eigenaar2": "Orange Belgium: 209O1_1", "Eigenaar3": "Proximus: 51ICH_01", "X": 55608, "Y": 198487, "ID": 21202, "Longitude": 3.0214123409537601, "Latitude": 51.088784396601099, "Proximus": true, "Orange": true, "Telenet": true }, "geometry": { "type": "Point", "coordinates": [ 55608.0, 198487.0 ] } },
{ "type": "Feature", "properties": { "Adres": "Hendrik Consciencelaan 10", "Locatie": "Residentie Montreal", "PostcodeGemeente": "8660 De Panne", "Eigenaar1": "Telenet: _WV5701C", "Eigenaar2": "Orange Belgium: 257O1_1", "Eigenaar3": "Proximus: 58DPK_00", "X": 24635, "Y": 200288, "ID": 21203, "Longitude": 2.5788475055084601, "Latitude": 51.099087670036702, "Proximus": true, "Orange": true, "Telenet": true }, "geometry": { "type": "Point", "coordinates": [ 24635.0, 200288.0 ] } },
{ "type": "Feature", "properties": { "Adres": "E17", "Locatie": "Zwijndrecht snelweg, Gent-Antwerpen, Afrit 17", "PostcodeGemeente": "2070 Zwijndrecht", "Eigenaar1": "Telenet: _AN0115A", "Eigenaar2": "Orange Belgium: 30789A1_4", "Eigenaar3": "Proximus: 03ZWH_00", "X": 147568, "Y": 210770, "ID": 21204, "Longitude": 4.33392636837727, "Latitude": 51.206882915909198, "Proximus": true, "Orange": true, "Telenet": true }, "geometry": { "type": "Point", "coordinates": [ 147568.0, 210770.0 ] } },
{ "type": "Feature", "properties": { "Adres": "Steenweg op Mol 177", "Locatie": "Miko", "PostcodeGemeente": "2300 Turnhout", "Eigenaar1": "Telenet: _AN0400A", "Eigenaar2": "Orange Belgium: 246A1_4", "Eigenaar3": "Proximus: 14ZTU_02", "X": 191794, "Y": 223718, "ID": 21206, "Longitude": 4.9682389148438801, "Latitude": 51.321748254312197, "Proximus": true, "Orange": true, "Telenet": true }, "geometry": { "type": "Point", "coordinates": [ 191794.0, 223718.0 ] } },
{ "type": "Feature", "properties": { "Adres": "Kroonlaan 42", "Locatie": "", "PostcodeGemeente": "1050 Elsene", "Eigenaar1": "Telenet: _BX3509A", "Eigenaar2": "Orange Belgium: 30071B1_1", "Eigenaar3": "Proximus: 02RMB_00", "X": 150612, "Y": 168987, "ID": 21207, "Longitude": 4.3774097899670998, "Latitude": 50.831300048560699, "Proximus": true, "Orange": true, "Telenet": true }, "geometry": { "type": "Point", "coordinates": [ 150612.0, 168987.0 ] } },
{ "type": "Feature", "properties": { "Adres": "Vier Linden \/ Ringlaan 21", "Locatie": "Hoogspanningspyloon", "PostcodeGemeente": "8501 Kortrijk", "Eigenaar1": "Telenet: _WV5688B", "Eigenaar2": "Proximus: 56IHK_02", "Eigenaar3": null, "X": 70757, "Y": 171805, "ID": 21213, "Longitude": 3.2433780464767898, "Latitude": 50.851236505076997, "Proximus": true, "Orange": false, "Telenet": true }, "geometry": { "type": "Point", "coordinates": [ 70757.0, 171805.0 ] } },
{ "type": "Feature", "properties": { "Adres": "Vrijheid 185", "Locatie": "Sint-Catharinakerk", "PostcodeGemeente": "2320 Hoogstraten", "Eigenaar1": "Telenet: _AN0144A", "Eigenaar2": "Orange Belgium: 31191A1_1", "Eigenaar3": "Proximus: 03HGC_01", "X": 177345, "Y": 232412, "ID": 21220, "Longitude": 4.7616416998395197, "Latitude": 51.4007559122701, "Proximus": true, "Orange": true, "Telenet": true }, "geometry": { "type": "Point", "coordinates": [ 177345.0, 232412.0 ] } },
{ "type": "Feature", "properties": { "Adres": "N258 \/ E314", "Locatie": "N258 - E314 \/ Afrit 23", "PostcodeGemeente": "3390 Tielt-Winge \/ 3390 Tielt-Winge", "Eigenaar1": "Telenet: _VB4064D", "Eigenaar2": "Orange Belgium: 30195F1_1", "Eigenaar3": "Proximus: 13TLT_01", "X": 189438, "Y": 183386, "ID": 21225, "Longitude": 4.93006663621345, "Latitude": 50.959395794044603, "Proximus": true, "Orange": true, "Telenet": true }, "geometry": { "type": "Point", "coordinates": [ 189438.0, 183386.0 ] } },
{ "type": "Feature", "properties": { "Adres": "Ambachtenlaan 14", "Locatie": "Taels Reclyclage", "PostcodeGemeente": "3294 Diest", "Eigenaar1": "Telenet: _VB4384P", "Eigenaar2": "Proximus: 13OKS_02", "Eigenaar3": null, "X": 195309, "Y": 188979, "ID": 21228, "Longitude": 5.01432065115472, "Latitude": 51.009240975103403, "Proximus": true, "Orange": false, "Telenet": true }, "geometry": { "type": "Point", "coordinates": [ 195309.0, 188979.0 ] } },
{ "type": "Feature", "properties": { "Adres": "Waardstraat", "Locatie": "", "PostcodeGemeente": "3520 Zonhoven", "Eigenaar1": "Telenet: _LI2582V", "Eigenaar2": "Orange Belgium: 30013H1_1", "Eigenaar3": "Proximus: 11TEU_01", "X": 222060, "Y": 189563, "ID": 21230, "Longitude": 5.3955640623730403, "Latitude": 51.011780269961001, "Proximus": true, "Orange": true, "Telenet": true }, "geometry": { "type": "Point", "coordinates": [ 222060.0, 189563.0 ] } },
{ "type": "Feature", "properties": { "Adres": "Everslaarstraat \/ Bredenhoekstraat", "Locatie": "", "PostcodeGemeente": "9160 Lokeren", "Eigenaar1": "Telenet: _OV5064V", "Eigenaar2": "Orange Belgium: 314G1_2", "Eigenaar3": "Proximus: 91EVL_00", "X": 122381, "Y": 196113, "ID": 21231, "Longitude": 3.97464264745282, "Latitude": 51.074483703575602, "Proximus": true, "Orange": true, "Telenet": true }, "geometry": { "type": "Point", "coordinates": [ 122381.0, 196113.0 ] } },
{ "type": "Feature", "properties": { "Adres": "Route de Genval", "Locatie": "", "PostcodeGemeente": "1380 Lasne", "Eigenaar1": "Telenet: _BW4638C", "Eigenaar2": "Proximus: 02OHC_01", "Eigenaar3": null, "X": 157054, "Y": 154954, "ID": 21241, "Longitude": 4.46858251556921, "Latitude": 50.705105447904003, "Proximus": true, "Orange": false, "Telenet": true }, "geometry": { "type": "Point", "coordinates": [ 157054.0, 154954.0 ] } },
{ "type": "Feature", "properties": { "Adres": "Maurice Lemonnierlaan 22", "Locatie": "", "PostcodeGemeente": "1000 Brussel", "Eigenaar1": "Telenet: _BX3159B", "Eigenaar2": "Proximus: 02FON_00", "Eigenaar3": null, "X": 148376, "Y": 170459, "ID": 21242, "Longitude": 4.3456643240228701, "Latitude": 50.844530756778703, "Proximus": true, "Orange": false, "Telenet": true }, "geometry": { "type": "Point", "coordinates": [ 148376.0, 170459.0 ] } },
{ "type": "Feature", "properties": { "Adres": "Heulentakstraat \/ Pannenhuisstraat", "Locatie": "", "PostcodeGemeente": "3650 Dilsen-Stokkem", "Eigenaar1": "Telenet: _LI2875P", "Eigenaar2": "Proximus: 89ROT_02", "Eigenaar3": null, "X": 243180, "Y": 193473, "ID": 21243, "Longitude": 5.6974597639689097, "Latitude": 51.043909987539401, "Proximus": true, "Orange": false, "Telenet": true }, "geometry": { "type": "Point", "coordinates": [ 243180.0, 193473.0 ] } },
{ "type": "Feature", "properties": { "Adres": "Emile Bossaertlaan \/ Basiliekvoorplein", "Locatie": "", "PostcodeGemeente": "1081 Koekelberg \/ 1083 Ganshoren", "Eigenaar1": "Telenet: _BX3001G", "Eigenaar2": "Orange Belgium: 110B1_6", "Eigenaar3": "Proximus: 02KKB_00", "X": 146351, "Y": 172968, "ID": 21244, "Longitude": 4.3168872943118002, "Latitude": 50.867076239317697, "Proximus": true, "Orange": true, "Telenet": true }, "geometry": { "type": "Point", "coordinates": [ 146351.0, 172968.0 ] } },
{ "type": "Feature", "properties": { "Adres": "Opge?istenlaan 208", "Locatie": "", "PostcodeGemeente": "9000 Gent", "Eigenaar1": "Telenet: _OV5320O", "Eigenaar2": "Orange Belgium: 40176G1_1", "Eigenaar3": "Proximus: 91OGL_01", "X": 104217, "Y": 194890, "ID": 21248, "Longitude": 3.7156336737566198, "Latitude": 51.062339646142703, "Proximus": true, "Orange": true, "Telenet": true }, "geometry": { "type": "Point", "coordinates": [ 104217.0, 194890.0 ] } },
{ "type": "Feature", "properties": { "Adres": "Maroyendam", "Locatie": "Industrieterrein Electrabel - hoogspanningspyloon", "PostcodeGemeente": "9900 Eeklo", "Eigenaar1": "Telenet: _OV5081C", "Eigenaar2": "Proximus: 91EEL_01", "Eigenaar3": null, "X": 91937, "Y": 211102, "ID": 21251, "Longitude": 3.5378860371223699, "Latitude": 51.2069538744963, "Proximus": true, "Orange": false, "Telenet": true }, "geometry": { "type": "Point", "coordinates": [ 91937.0, 211102.0 ] } },
{ "type": "Feature", "properties": { "Adres": "Ma?sstraat 215", "Locatie": "Watertoren", "PostcodeGemeente": "9000 Gent", "Eigenaar1": "Telenet: _OV5205A", "Eigenaar2": "Orange Belgium: 037G1_4", "Eigenaar3": "Proximus: 91NWV_01", "X": 104045, "Y": 196078, "ID": 21253, "Longitude": 3.71303055546425, "Latitude": 51.073004419645102, "Proximus": true, "Orange": true, "Telenet": true }, "geometry": { "type": "Point", "coordinates": [ 104045.0, 196078.0 ] } },
{ "type": "Feature", "properties": { "Adres": "Maststraat", "Locatie": "", "PostcodeGemeente": "8930 Menen", "Eigenaar1": "Telenet: _WV5899A", "Eigenaar2": "Orange Belgium: 003O1_7", "Eigenaar3": "Proximus: 56MEI_01", "X": 60387, "Y": 165203, "ID": 21254, "Longitude": 3.09774366969926, "Latitude": 50.790391217276699, "Proximus": true, "Orange": true, "Telenet": true }, "geometry": { "type": "Point", "coordinates": [ 60387.0, 165203.0 ] } },
{ "type": "Feature", "properties": { "Adres": "Peterbospark 1 \/ Peterbospark", "Locatie": "", "PostcodeGemeente": "1070 Anderlecht", "Eigenaar1": "Telenet: _BX3035E", "Eigenaar2": "Proximus: 02RIO_00", "Eigenaar3": null, "X": 144757, "Y": 170336, "ID": 21255, "Longitude": 4.2942812092263596, "Latitude": 50.843403849385197, "Proximus": true, "Orange": false, "Telenet": true }, "geometry": { "type": "Point", "coordinates": [ 144757.0, 170336.0 ] } },
{ "type": "Feature", "properties": { "Adres": "Visitandinenstraat 1", "Locatie": "Le Foyer Bruxellois", "PostcodeGemeente": "1000 Brussel", "Eigenaar1": "Telenet: _BX3068A", "Eigenaar2": "Proximus: 02KKS_00", "Eigenaar3": null, "X": 148585, "Y": 170041, "ID": 21257, "Longitude": 4.3486334061664103, "Latitude": 50.840773693129201, "Proximus": true, "Orange": false, "Telenet": true }, "geometry": { "type": "Point", "coordinates": [ 148585.0, 170041.0 ] } },
{ "type": "Feature", "properties": { "Adres": "Groenenborgerlaan 171", "Locatie": "Universitair Centrum Antwerpen", "PostcodeGemeente": "2020 Antwerpen", "Eigenaar1": "Telenet: _AN0023B", "Eigenaar2": "Orange Belgium: 159A1_1 \/ 30302A1_2 \/ 40302A1_1", "Eigenaar3": null, "X": 153212, "Y": 207534, "ID": 21267, "Longitude": 4.4146574179335998, "Latitude": 51.177792064287097, "Proximus": false, "Orange": true, "Telenet": true }, "geometry": { "type": "Point", "coordinates": [ 153212.0, 207534.0 ] } },
{ "type": "Feature", "properties": { "Adres": "Steenweg naar Asse", "Locatie": "", "PostcodeGemeente": "7850 Enghien", "Eigenaar1": "Telenet: _HT1696B", "Eigenaar2": "Orange Belgium: 429C1_1", "Eigenaar3": "Proximus: 02TPE_01", "X": 127157, "Y": 154216, "ID": 21268, "Longitude": 4.0453889077774896, "Latitude": 50.698067951858498, "Proximus": true, "Orange": true, "Telenet": true }, "geometry": { "type": "Point", "coordinates": [ 127157.0, 154216.0 ] } },
{ "type": "Feature", "properties": { "Adres": "Maria Gorettistraat \/ Vest 1", "Locatie": "Gemeentehallen", "PostcodeGemeente": "2230 Herselt", "Eigenaar1": "Telenet: _AN0187C", "Eigenaar2": "Proximus: 14HRC_01", "Eigenaar3": null, "X": 186087, "Y": 194036, "ID": 21272, "Longitude": 4.8834234839246404, "Latitude": 51.055345081637597, "Proximus": true, "Orange": false, "Telenet": true }, "geometry": { "type": "Point", "coordinates": [ 186087.0, 194036.0 ] } },
{ "type": "Feature", "properties": { "Adres": "Chauss?e de La Hulpe", "Locatie": "Gare de la Hulpe", "PostcodeGemeente": "1310 La Hulpe", "Eigenaar1": "Telenet: _BW4534F", "Eigenaar2": "Orange Belgium: 211W1_2&30021W1_1", "Eigenaar3": "Proximus: 02TRC_00", "X": 159142, "Y": 158507, "ID": 21275, "Longitude": 4.4982295119000302, "Latitude": 50.737017023658197, "Proximus": true, "Orange": true, "Telenet": true }, "geometry": { "type": "Point", "coordinates": [ 159142.0, 158507.0 ] } },
{ "type": "Feature", "properties": { "Adres": "Emblemsesteenweg 1", "Locatie": "OLV Koningin van de Vredekerk", "PostcodeGemeente": "2560 Nijlen", "Eigenaar1": "Telenet: _AN0377B", "Eigenaar2": "Orange Belgium: 32309A1_1", "Eigenaar3": "Proximus: 03KES_01", "X": 167400, "Y": 204573, "ID": 21277, "Longitude": 4.6174032088718198, "Latitude": 51.150923191318597, "Proximus": true, "Orange": true, "Telenet": true }, "geometry": { "type": "Point", "coordinates": [ 167400.0, 204573.0 ] } },
{ "type": "Feature", "properties": { "Adres": "Doornpark 9", "Locatie": "", "PostcodeGemeente": "9120 Beveren", "Eigenaar1": "Telenet: _OV5188F", "Eigenaar2": "Proximus: 03OUB_01", "Eigenaar3": null, "X": 139353, "Y": 209663, "ID": 21278, "Longitude": 4.2164109204978004, "Latitude": 51.196839953437198, "Proximus": true, "Orange": false, "Telenet": true }, "geometry": { "type": "Point", "coordinates": [ 139353.0, 209663.0 ] } },
{ "type": "Feature", "properties": { "Adres": "Hertshage \/ Zegepraalstraat", "Locatie": "", "PostcodeGemeente": "9300 Aalst", "Eigenaar1": "Telenet: _OV5211B", "Eigenaar2": "Orange Belgium: 351G1_1", "Eigenaar3": "Proximus: 53BNS_02", "X": 127025, "Y": 181572, "ID": 21280, "Longitude": 4.0418174003693403, "Latitude": 50.943978060341699, "Proximus": true, "Orange": true, "Telenet": true }, "geometry": { "type": "Point", "coordinates": [ 127025.0, 181572.0 ] } },
{ "type": "Feature", "properties": { "Adres": "Tervurenlaan 149", "Locatie": "Europarthotel", "PostcodeGemeente": "1150 Sint-Pieters-Woluwe", "Eigenaar1": "Telenet: _BX3255A", "Eigenaar2": "Proximus: 02MON_00", "Eigenaar3": null, "X": 152618, "Y": 169685, "ID": 21283, "Longitude": 4.4058891853281503, "Latitude": 50.837569041379503, "Proximus": true, "Orange": false, "Telenet": true }, "geometry": { "type": "Point", "coordinates": [ 152618.0, 169685.0 ] } },
{ "type": "Feature", "properties": { "Adres": "Ninoofsesteenweg 833", "Locatie": "", "PostcodeGemeente": "1703 Dilbeek", "Eigenaar1": "Telenet: _VB4152A", "Eigenaar2": "Orange Belgium: 121F1_2", "Eigenaar3": "Proximus: 02TSK_01", "X": 138669, "Y": 169903, "ID": 21284, "Longitude": 4.2078555532288098, "Latitude": 50.839424966072201, "Proximus": true, "Orange": true, "Telenet": true }, "geometry": { "type": "Point", "coordinates": [ 138669.0, 169903.0 ] } },
{ "type": "Feature", "properties": { "Adres": "Nadirgaarde 186 \/ Koning Albertlaan 186", "Locatie": "", "PostcodeGemeente": "1082 Sint-Agatha-Berchem", "Eigenaar1": "Telenet: _BX3051H", "Eigenaar2": "Proximus: 02BER_00", "Eigenaar3": null, "X": 144149, "Y": 172914, "ID": 21287, "Longitude": 4.2856078439699701, "Latitude": 50.866572915161797, "Proximus": true, "Orange": false, "Telenet": true }, "geometry": { "type": "Point", "coordinates": [ 144149.0, 172914.0 ] } },
{ "type": "Feature", "properties": { "Adres": "Rue Ars?ne Matton 15", "Locatie": "", "PostcodeGemeente": "1325 Chaumont-Gistoux", "Eigenaar1": "Telenet: _BW4629P", "Eigenaar2": "Orange Belgium: 1-32264-W1", "Eigenaar3": "Proximus: 10DLT_01", "X": 170784, "Y": 154671, "ID": 21292, "Longitude": 4.6629358162376997, "Latitude": 50.702233129512798, "Proximus": true, "Orange": true, "Telenet": true }, "geometry": { "type": "Point", "coordinates": [ 170784.0, 154671.0 ] } },
{ "type": "Feature", "properties": { "Adres": "Rue Champ?tre", "Locatie": "Chateau d'eau", "PostcodeGemeente": "1300 Wavre", "Eigenaar1": "Telenet: _BW4549A", "Eigenaar2": "Orange Belgium: 219W1_1", "Eigenaar3": "Proximus: 10LMA_01", "X": 163488, "Y": 154774, "ID": 21294, "Longitude": 4.5596595210770197, "Latitude": 50.703373740094499, "Proximus": true, "Orange": true, "Telenet": true }, "geometry": { "type": "Point", "coordinates": [ 163488.0, 154774.0 ] } },
{ "type": "Feature", "properties": { "Adres": "Amsterdamstraat", "Locatie": "De Rijke Transport NV", "PostcodeGemeente": "2321 Hoogstraten", "Eigenaar1": "Telenet: _AN0565P", "Eigenaar2": "Orange Belgium: 381A1_4", "Eigenaar3": "Proximus: 03MOS_03", "X": 175048, "Y": 241629, "ID": 21301, "Longitude": 4.7292813225556198, "Latitude": 51.483697846864601, "Proximus": true, "Orange": true, "Telenet": true }, "geometry": { "type": "Point", "coordinates": [ 175048.0, 241629.0 ] } },
{ "type": "Feature", "properties": { "Adres": "Henri Hollevoetlaan 16", "Locatie": "", "PostcodeGemeente": "1080 Sint-Jans-Molenbeek", "Eigenaar1": "Telenet: _BX3559A", "Eigenaar2": "Orange Belgium: 314B1_1", "Eigenaar3": "Proximus: 02EVC_00", "X": 147788, "Y": 172792, "ID": 21307, "Longitude": 4.33730150740928, "Latitude": 50.865501321023899, "Proximus": true, "Orange": true, "Telenet": true }, "geometry": { "type": "Point", "coordinates": [ 147788.0, 172792.0 ] } },
{ "type": "Feature", "properties": { "Adres": "Nijverheidsstraat", "Locatie": "", "PostcodeGemeente": "2260 Westerlo", "Eigenaar1": "Telenet: _AN0131V", "Eigenaar2": "Orange Belgium: 236A1_4", "Eigenaar3": "Proximus: 14OVE_01", "X": 187328, "Y": 203764, "ID": 21308, "Longitude": 4.9021206011937801, "Latitude": 51.142706982522299, "Proximus": true, "Orange": true, "Telenet": true }, "geometry": { "type": "Point", "coordinates": [ 187328.0, 203764.0 ] } },
{ "type": "Feature", "properties": { "Adres": "Terhulpsesteenweg 150", "Locatie": "", "PostcodeGemeente": "1170 Watermaal-Bosvoorde", "Eigenaar1": "Telenet: _BX3052G", "Eigenaar2": "Orange Belgium: 088B1_3", "Eigenaar3": "Proximus: 02HLP_00", "X": 152301, "Y": 165154, "ID": 21309, "Longitude": 4.4013602391658004, "Latitude": 50.796838835139098, "Proximus": true, "Orange": true, "Telenet": true }, "geometry": { "type": "Point", "coordinates": [ 152301.0, 165154.0 ] } },
{ "type": "Feature", "properties": { "Adres": "Dorpsstraat", "Locatie": "Kerk Sint-Blasius", "PostcodeGemeente": "3971 Leopoldsburg", "Eigenaar1": "Telenet: _LI2691A", "Eigenaar2": "Proximus: 11LEC_03", "Eigenaar3": null, "X": 210207, "Y": 200216, "ID": 21311, "Longitude": 5.22843677427998, "Latitude": 51.108885588535003, "Proximus": true, "Orange": false, "Telenet": true }, "geometry": { "type": "Point", "coordinates": [ 210207.0, 200216.0 ] } },
{ "type": "Feature", "properties": { "Adres": "Vogelzanglaan 2", "Locatie": "", "PostcodeGemeente": "1150 Sint-Pieters-Woluwe", "Eigenaar1": "Telenet: _BX3145A", "Eigenaar2": "Orange Belgium: 219B1_3", "Eigenaar3": "Proximus: 02WOV_00", "X": 153506, "Y": 168513, "ID": 21320, "Longitude": 4.4184844602805304, "Latitude": 50.827028641849203, "Proximus": true, "Orange": true, "Telenet": true }, "geometry": { "type": "Point", "coordinates": [ 153506.0, 168513.0 ] } },
{ "type": "Feature", "properties": { "Adres": "Belgi?plein", "Locatie": "", "PostcodeGemeente": "1020 Brussel", "Eigenaar1": "Telenet: _BX3065A", "Eigenaar2": "Orange Belgium: 30273B3_1 \/ 30366B1_1", "Eigenaar3": "Proximus: 02EXP_00", "X": 147817, "Y": 176581, "ID": 21328, "Longitude": 4.3376913375011599, "Latitude": 50.899562099843003, "Proximus": true, "Orange": true, "Telenet": true }, "geometry": { "type": "Point", "coordinates": [ 147817.0, 176581.0 ] } },
{ "type": "Feature", "properties": { "Adres": "Chauss?e de Tirlemont", "Locatie": "Hall sportif Baudouin", "PostcodeGemeente": "1370 Jodoigne", "Eigenaar1": "Telenet: _BW4584L", "Eigenaar2": "Proximus: 10JOP_03", "Eigenaar3": null, "X": 185514, "Y": 157598, "ID": 21343, "Longitude": 4.8717269619810999, "Latitude": 50.727834104359196, "Proximus": true, "Orange": false, "Telenet": true }, "geometry": { "type": "Point", "coordinates": [ 185514.0, 157598.0 ] } },
{ "type": "Feature", "properties": { "Adres": "Rue des Trois Fermes", "Locatie": "Cimenteries CBR", "PostcodeGemeente": "4600 Vis?", "Eigenaar1": "Telenet: _LG2330A", "Eigenaar2": "Orange Belgium: 279L1_1", "Eigenaar3": "Proximus: 41LIX_00", "X": 242299, "Y": 162530, "ID": 21359, "Longitude": 5.6771214396399801, "Latitude": 50.765938045289502, "Proximus": true, "Orange": true, "Telenet": true }, "geometry": { "type": "Point", "coordinates": [ 242299.0, 162530.0 ] } },
{ "type": "Feature", "properties": { "Adres": "Diestweg", "Locatie": "WZC Rusthuis De Witte Bergen BVBA", "PostcodeGemeente": "2460 Kasterlee", "Eigenaar1": "Telenet: _AN0254C", "Eigenaar2": "Orange Belgium: 269A1_1", "Eigenaar3": "Proximus: 14LIT_00", "X": 187287, "Y": 212769, "ID": 21362, "Longitude": 4.9024606570490503, "Latitude": 51.223648880448401, "Proximus": true, "Orange": true, "Telenet": true }, "geometry": { "type": "Point", "coordinates": [ 187287.0, 212769.0 ] } },
{ "type": "Feature", "properties": { "Adres": "Kapittelstraat \/ Ten Beukeboom", "Locatie": "Eurocoating NV", "PostcodeGemeente": "9400 Ninove", "Eigenaar1": "Telenet: _OV5125A", "Eigenaar2": "Orange Belgium: 244G1_1", "Eigenaar3": "Proximus: 54APC_02", "X": 121555, "Y": 168713, "ID": 21371, "Longitude": 3.96498155856594, "Latitude": 50.828143218640903, "Proximus": true, "Orange": true, "Telenet": true }, "geometry": { "type": "Point", "coordinates": [ 121555.0, 168713.0 ] } },
{ "type": "Feature", "properties": { "Adres": "Geraardsbergsestraat 28", "Locatie": "Voetbalterrein Deftinge", "PostcodeGemeente": "9570 Lierde", "Eigenaar1": "Telenet: _OV5139B", "Eigenaar2": "Orange Belgium: 452G1_2", "Eigenaar3": "Proximus: 54DEF_01", "X": 113485, "Y": 163722, "ID": 21375, "Longitude": 3.8509351315967701, "Latitude": 50.782827208014297, "Proximus": true, "Orange": true, "Telenet": true }, "geometry": { "type": "Point", "coordinates": [ 113485.0, 163722.0 ] } },
{ "type": "Feature", "properties": { "Adres": "Herzieningslaan 68", "Locatie": "", "PostcodeGemeente": "1070 Anderlecht", "Eigenaar1": "Telenet: _BX3171E", "Eigenaar2": "Proximus: 02TSS_00", "Eigenaar3": null, "X": 147135, "Y": 169430, "ID": 21391, "Longitude": 4.3280515781237998, "Latitude": 50.835275775206597, "Proximus": true, "Orange": false, "Telenet": true }, "geometry": { "type": "Point", "coordinates": [ 147135.0, 169430.0 ] } },
{ "type": "Feature", "properties": { "Adres": "Zeeschipstraat 207", "Locatie": "", "PostcodeGemeente": "9000 Gent", "Eigenaar1": "Telenet: _OV5368M", "Eigenaar2": "Orange Belgium: 130G1_4", "Eigenaar3": "Proximus: 91TAM_01", "X": 104790, "Y": 198338, "ID": 21398, "Longitude": 3.7233796625680502, "Latitude": 51.093376988046401, "Proximus": true, "Orange": true, "Telenet": true }, "geometry": { "type": "Point", "coordinates": [ 104790.0, 198338.0 ] } },
{ "type": "Feature", "properties": { "Adres": "Terlicht", "Locatie": "Watertoren Heldergem", "PostcodeGemeente": "9450 Haaltert", "Eigenaar1": "Telenet: _OV5282A", "Eigenaar2": "Orange Belgium: 067G1_2", "Eigenaar3": null, "X": 121321, "Y": 173565, "ID": 21399, "Longitude": 3.9612826279686999, "Latitude": 50.871748030368401, "Proximus": false, "Orange": true, "Telenet": true }, "geometry": { "type": "Point", "coordinates": [ 121321.0, 173565.0 ] } },
{ "type": "Feature", "properties": { "Adres": "Europalaan 65", "Locatie": "Sint-Martinuskerk", "PostcodeGemeente": "3650 Dilsen-Stokkem", "Eigenaar1": "Telenet: _LI2607C", "Eigenaar2": "Orange Belgium: 129H1_2", "Eigenaar3": "Proximus: 89DIC_01", "X": 244935, "Y": 192801, "ID": 21400, "Longitude": 5.7223056374693604, "Latitude": 51.037585227956697, "Proximus": true, "Orange": true, "Telenet": true }, "geometry": { "type": "Point", "coordinates": [ 244935.0, 192801.0 ] } },
{ "type": "Feature", "properties": { "Adres": "Graaf Jansdijk 162", "Locatie": "Algemeen Ziekenhuis O.L.V.Ter Linden", "PostcodeGemeente": "8300 Knokke-Heist", "Eigenaar1": "Telenet: _WV5713B", "Eigenaar2": "Orange Belgium: 248O1_1", "Eigenaar3": null, "X": 75833, "Y": 225879, "ID": 21406, "Longitude": 3.3044468833249399, "Latitude": 51.337914544423299, "Proximus": false, "Orange": true, "Telenet": true }, "geometry": { "type": "Point", "coordinates": [ 75833.0, 225879.0 ] } },
{ "type": "Feature", "properties": { "Adres": "Verbroederingstraat", "Locatie": "Ch?teau d'eau", "PostcodeGemeente": "7700 Mouscron", "Eigenaar1": "Telenet: _HT1732H", "Eigenaar2": "Orange Belgium: 217C1_1", "Eigenaar3": "Proximus: 56RIS_00", "X": 67473, "Y": 160256, "ID": 21407, "Longitude": 3.19933165717516, "Latitude": 50.7469721354367, "Proximus": true, "Orange": true, "Telenet": true }, "geometry": { "type": "Point", "coordinates": [ 67473.0, 160256.0 ] } },
{ "type": "Feature", "properties": { "Adres": "Heistsebaan 83", "Locatie": "Sportcentrum Heikant", "PostcodeGemeente": "2590 Berlaar", "Eigenaar1": "Telenet: _AN0366D", "Eigenaar2": "Orange Belgium: 476A1_1", "Eigenaar3": "Proximus: 15HKT_04", "X": 170719, "Y": 197234, "ID": 21410, "Longitude": 4.6644189568529004, "Latitude": 51.084845851040797, "Proximus": true, "Orange": true, "Telenet": true }, "geometry": { "type": "Point", "coordinates": [ 170719.0, 197234.0 ] } },
{ "type": "Feature", "properties": { "Adres": "Daalhofstraat 45", "Locatie": "", "PostcodeGemeente": "3840 Borgloon", "Eigenaar1": "Telenet: _LI2561E", "Eigenaar2": "Orange Belgium: 087H1_1", "Eigenaar3": "Proximus: 11HOP_01", "X": 215035, "Y": 166722, "ID": 21412, "Longitude": 5.2914233294555197, "Latitude": 50.807302514440501, "Proximus": true, "Orange": true, "Telenet": true }, "geometry": { "type": "Point", "coordinates": [ 215035.0, 166722.0 ] } },
{ "type": "Feature", "properties": { "Adres": "Ferdinand Crapsstraat 2", "Locatie": "Foyers Anderlechtois", "PostcodeGemeente": "1070 Anderlecht", "Eigenaar1": "Telenet: _VB4089A", "Eigenaar2": "Orange Belgium: 074B1_1", "Eigenaar3": "Proximus: 02GLU_00", "X": 143841, "Y": 169474, "ID": 21413, "Longitude": 4.2812899325729399, "Latitude": 50.835645978557501, "Proximus": true, "Orange": true, "Telenet": true }, "geometry": { "type": "Point", "coordinates": [ 143841.0, 169474.0 ] } },
{ "type": "Feature", "properties": { "Adres": "Bokrijklaan 1", "Locatie": "Domein van Bokrijk", "PostcodeGemeente": "3600 Genk", "Eigenaar1": "Telenet: _LI2650A", "Eigenaar2": "Orange Belgium: 104H1_5", "Eigenaar3": "Proximus: 11BKR_01", "X": 223255, "Y": 183474, "ID": 21416, "Longitude": 5.4113714029804303, "Latitude": 50.9569010703487, "Proximus": true, "Orange": true, "Telenet": true }, "geometry": { "type": "Point", "coordinates": [ 223255.0, 183474.0 ] } },
{ "type": "Feature", "properties": { "Adres": "Molenvest 23", "Locatie": "Belgacom", "PostcodeGemeente": "2200 Herentals", "Eigenaar1": "Telenet: _AN0424A", "Eigenaar2": "Orange Belgium: 280A1_3", "Eigenaar3": "Proximus: 14HER_00", "X": 182401, "Y": 207432, "ID": 21417, "Longitude": 4.8320460464617199, "Latitude": 51.1759739123084, "Proximus": true, "Orange": true, "Telenet": true }, "geometry": { "type": "Point", "coordinates": [ 182401.0, 207432.0 ] } },
{ "type": "Feature", "properties": { "Adres": "Ninovestraat", "Locatie": "", "PostcodeGemeente": "9420 Erpe-Mere", "Eigenaar1": "Telenet: _OV5136H", "Eigenaar2": "Orange Belgium: 30604G1_1", "Eigenaar3": null, "X": 118971, "Y": 177557, "ID": 21423, "Longitude": 3.92756037196067, "Latitude": 50.907512405604201, "Proximus": false, "Orange": true, "Telenet": true }, "geometry": { "type": "Point", "coordinates": [ 118971.0, 177557.0 ] } },
{ "type": "Feature", "properties": { "Adres": "Kleine Noordstraat 40", "Locatie": "Watertoren VWM", "PostcodeGemeente": "8830 Hooglede", "Eigenaar1": "Telenet: _WV5751A", "Eigenaar2": "Orange Belgium: 068O1_1", "Eigenaar3": "Proximus: 51HLD_00", "X": 59511, "Y": 186553, "ID": 21424, "Longitude": 3.0800668825903799, "Latitude": 50.982149787999298, "Proximus": true, "Orange": true, "Telenet": true }, "geometry": { "type": "Point", "coordinates": [ 59511.0, 186553.0 ] } },
{ "type": "Feature", "properties": { "Adres": "Arcadelaan 5", "Locatie": "Watertoren", "PostcodeGemeente": "8301 Knokke-Heist", "Eigenaar1": "Telenet: _WV5704G", "Eigenaar2": "Orange Belgium: 046O1_1", "Eigenaar3": "Proximus: 50HST_00", "X": 73315, "Y": 226366, "ID": 21429, "Longitude": 3.2682158122910501, "Latitude": 51.341961285815898, "Proximus": true, "Orange": true, "Telenet": true }, "geometry": { "type": "Point", "coordinates": [ 73315.0, 226366.0 ] } },
{ "type": "Feature", "properties": { "Adres": "Zogge \/ Neerlandt 62", "Locatie": "Voetbalveld V.K.Z. Hamme-Zogge", "PostcodeGemeente": "9220 Hamme", "Eigenaar1": "Telenet: _OV5350B", "Eigenaar2": "Orange Belgium: 350G1_1", "Eigenaar3": "Proximus: 52ZOG_03", "X": 131131, "Y": 196060, "ID": 21430, "Longitude": 4.0994935200544802, "Latitude": 51.074358233632204, "Proximus": true, "Orange": true, "Telenet": true }, "geometry": { "type": "Point", "coordinates": [ 131131.0, 196060.0 ] } },
{ "type": "Feature", "properties": { "Adres": "Chauss?e de Wavre 323", "Locatie": "Brichart", "PostcodeGemeente": "1370 Jodoigne", "Eigenaar1": "Telenet: _BW4881A", "Eigenaar2": "Orange Belgium: 052W1_1", "Eigenaar3": "Proximus: 10LAT_02", "X": 182633, "Y": 158103, "ID": 21438, "Longitude": 4.83096721772141, "Latitude": 50.7325422619531, "Proximus": true, "Orange": true, "Telenet": true }, "geometry": { "type": "Point", "coordinates": [ 182633.0, 158103.0 ] } },
{ "type": "Feature", "properties": { "Adres": "Kraatveldstraat 137", "Locatie": "", "PostcodeGemeente": "1120 Brussel", "Eigenaar1": "Telenet: _BX3506C", "Eigenaar2": "Orange Belgium: 094B1_3", "Eigenaar3": "Proximus: 02HEC_00", "X": 151119, "Y": 176651, "ID": 21441, "Longitude": 4.3846304176551403, "Latitude": 50.900194285536003, "Proximus": true, "Orange": true, "Telenet": true }, "geometry": { "type": "Point", "coordinates": [ 151119.0, 176651.0 ] } },
{ "type": "Feature", "properties": { "Adres": "Rue de Champles 36", "Locatie": "", "PostcodeGemeente": "1301 Wavre", "Eigenaar1": "Telenet: _BW4566B", "Eigenaar2": "Orange Belgium: 227W1_1", "Eigenaar3": null, "X": 164787, "Y": 156788, "ID": 21443, "Longitude": 4.5781287651315496, "Latitude": 50.721447475732397, "Proximus": false, "Orange": true, "Telenet": true }, "geometry": { "type": "Point", "coordinates": [ 164787.0, 156788.0 ] } },
{ "type": "Feature", "properties": { "Adres": "Rue de Tournai", "Locatie": "", "PostcodeGemeente": "7730 Estaimpuis", "Eigenaar1": "Telenet: _HT1745A", "Eigenaar2": null, "Eigenaar3": null, "X": 73827, "Y": 153085, "ID": 21444, "Longitude": 3.2908281875188501, "Latitude": 50.683378355168202, "Proximus": false, "Orange": false, "Telenet": true }, "geometry": { "type": "Point", "coordinates": [ 73827.0, 153085.0 ] } },
{ "type": "Feature", "properties": { "Adres": "Kapelleweg", "Locatie": "Sint-Michielskerk", "PostcodeGemeente": "3090 Overijse", "Eigenaar1": "Telenet: _VB4230E", "Eigenaar2": "Orange Belgium: C1-441-F1 & C1-32441-F1 & C1-42441-F1", "Eigenaar3": "Proximus: 02TRL_01", "X": 166517, "Y": 162240, "ID": 21447, "Longitude": 4.6028720120195503, "Latitude": 50.770412720131098, "Proximus": true, "Orange": true, "Telenet": true }, "geometry": { "type": "Point", "coordinates": [ 166517.0, 162240.0 ] } },
{ "type": "Feature", "properties": { "Adres": "Weg naar Meeuwen 56", "Locatie": "Weltjens Transport N.V.", "PostcodeGemeente": "3660 Opglabbeek", "Eigenaar1": "Telenet: _LI2629B", "Eigenaar2": "Orange Belgium: 127H1_2", "Eigenaar3": "Proximus: 89RUI_01", "X": 231331, "Y": 192626, "ID": 21456, "Longitude": 5.5283354272133201, "Latitude": 51.038082957271698, "Proximus": true, "Orange": true, "Telenet": true }, "geometry": { "type": "Point", "coordinates": [ 231331.0, 192626.0 ] } },
{ "type": "Feature", "properties": { "Adres": "Kanaaldijk 14", "Locatie": "", "PostcodeGemeente": "2440 Geel", "Eigenaar1": "Telenet: _AN0260A", "Eigenaar2": "Orange Belgium: 231A1_1", "Eigenaar3": "Proximus: 14AAR_00", "X": 192812, "Y": 210367, "ID": 21460, "Longitude": 4.98125937718273, "Latitude": 51.2016757474549, "Proximus": true, "Orange": true, "Telenet": true }, "geometry": { "type": "Point", "coordinates": [ 192812.0, 210367.0 ] } },
{ "type": "Feature", "properties": { "Adres": "Industrieweg 17", "Locatie": "Containerpark - Kortesem Technische Diensten", "PostcodeGemeente": "3720 Kortessem", "Eigenaar1": "Telenet: _LI2572C", "Eigenaar2": "Proximus: 11KSM_01", "Eigenaar3": null, "X": 220460, "Y": 174207, "ID": 21463, "Longitude": 5.3698155223517201, "Latitude": 50.873951098063898, "Proximus": true, "Orange": false, "Telenet": true }, "geometry": { "type": "Point", "coordinates": [ 220460.0, 174207.0 ] } },
{ "type": "Feature", "properties": { "Adres": "Gansbroekstraat 25", "Locatie": "Lambrechts Constructie NV", "PostcodeGemeente": "2870 Puurs", "Eigenaar1": "Telenet: _AN0406A", "Eigenaar2": "Proximus: 03RUI_00", "Eigenaar3": null, "X": 147871, "Y": 197550, "ID": 21465, "Longitude": 4.3383385392922804, "Latitude": 51.088054527197698, "Proximus": true, "Orange": false, "Telenet": true }, "geometry": { "type": "Point", "coordinates": [ 147871.0, 197550.0 ] } },
{ "type": "Feature", "properties": { "Adres": "Hollandse dreef", "Locatie": "Watertoren", "PostcodeGemeente": "2260 Westerlo", "Eigenaar1": "Telenet: _AN0188A", "Eigenaar2": "Orange Belgium: 094A1_1", "Eigenaar3": "Proximus: 14WTL_00", "X": 188064, "Y": 198141, "ID": 21468, "Longitude": 4.9120485947993604, "Latitude": 51.0921167425509, "Proximus": true, "Orange": true, "Telenet": true }, "geometry": { "type": "Point", "coordinates": [ 188064.0, 198141.0 ] } },
{ "type": "Feature", "properties": { "Adres": "Willeriekendreef", "Locatie": "Lieu-dit &quot;Bonne Odeur&quot;", "PostcodeGemeente": "1170 Watermaal-Bosvoorde", "Eigenaar1": "Telenet: _VB4102E", "Eigenaar2": "Orange Belgium: 30007B1_1", "Eigenaar3": "Proximus: 02RIE_00", "X": 155921, "Y": 163721, "ID": 21469, "Longitude": 4.4526841844111003, "Latitude": 50.783930863726198, "Proximus": true, "Orange": true, "Telenet": true }, "geometry": { "type": "Point", "coordinates": [ 155921.0, 163721.0 ] } },
{ "type": "Feature", "properties": { "Adres": "Sint-Coletastraat 10", "Locatie": "Sint-Coletakerk", "PostcodeGemeente": "9000 Gent", "Eigenaar1": "Telenet: _OV5013A", "Eigenaar2": "Orange Belgium: 30216G1_1", "Eigenaar3": "Proximus: 91ZWS_01", "X": 104963, "Y": 191756, "ID": 21476, "Longitude": 3.7266611645538199, "Latitude": 51.034227855580802, "Proximus": true, "Orange": true, "Telenet": true }, "geometry": { "type": "Point", "coordinates": [ 104963.0, 191756.0 ] } },
{ "type": "Feature", "properties": { "Adres": "Van Leriuslaan 227", "Locatie": "Watertoren", "PostcodeGemeente": "2850 Boom", "Eigenaar1": "Telenet: _AN0081E", "Eigenaar2": "Proximus: 03BMK_01", "Eigenaar3": null, "X": 150351, "Y": 198690, "ID": 21477, "Longitude": 4.3737356821494897, "Latitude": 51.098305440245198, "Proximus": true, "Orange": false, "Telenet": true }, "geometry": { "type": "Point", "coordinates": [ 150351.0, 198690.0 ] } },
{ "type": "Feature", "properties": { "Adres": "Brand 76", "Locatie": "Camping BERKENSTRAND", "PostcodeGemeente": "2470 Retie", "Eigenaar1": "Telenet: _AN0351A", "Eigenaar2": "Orange Belgium: 263A1_1", "Eigenaar3": "Proximus: 14BKS_01", "X": 203088, "Y": 218627, "ID": 21493, "Longitude": 5.1294859030113402, "Latitude": 51.275061074984698, "Proximus": true, "Orange": true, "Telenet": true }, "geometry": { "type": "Point", "coordinates": [ 203088.0, 218627.0 ] } },
{ "type": "Feature", "properties": { "Adres": "Rue du Garage", "Locatie": "", "PostcodeGemeente": "4680 Oupeye", "Eigenaar1": "Telenet: _LG2135M", "Eigenaar2": "Orange Belgium: 217L1_5", "Eigenaar3": "Proximus: 41HME_01", "X": 238805, "Y": 155724, "ID": 21495, "Longitude": 5.6259670778438302, "Latitude": 50.705305925019402, "Proximus": true, "Orange": true, "Telenet": true }, "geometry": { "type": "Point", "coordinates": [ 238805.0, 155724.0 ] } },
{ "type": "Feature", "properties": { "Adres": "Hogelaanstraat \/ E403", "Locatie": "", "PostcodeGemeente": "8810 Lichtervelde \/ 8810 Lichtervelde", "Eigenaar1": "Telenet: _WV5569V", "Eigenaar2": "Orange Belgium: 334O1_1", "Eigenaar3": "Proximus: 50TGR_00", "X": 64832, "Y": 195974, "ID": 21502, "Longitude": 3.1536339851560702, "Latitude": 51.067629505263497, "Proximus": true, "Orange": true, "Telenet": true }, "geometry": { "type": "Point", "coordinates": [ 64832.0, 195974.0 ] } },
{ "type": "Feature", "properties": { "Adres": "Hendrik van Veldekesingel 9", "Locatie": "Residentie Hendrik Van Veldeke", "PostcodeGemeente": "3500 Hasselt", "Eigenaar1": "Telenet: _LI2822A", "Eigenaar2": "Proximus: 11HAW_00", "Eigenaar3": null, "X": 216476, "Y": 180441, "ID": 21503, "Longitude": 5.3143458742493097, "Latitude": 50.930455501008801, "Proximus": true, "Orange": false, "Telenet": true }, "geometry": { "type": "Point", "coordinates": [ 216476.0, 180441.0 ] } },
{ "type": "Feature", "properties": { "Adres": "Reigerlostraat \/ E40", "Locatie": "", "PostcodeGemeente": "8730 Beernem \/ 8730 Beernem", "Eigenaar1": "Telenet: _WV5526V", "Eigenaar2": "Orange Belgium: 042O1_2", "Eigenaar3": "Proximus: 50BTK_00", "X": 76891, "Y": 201674, "ID": 21508, "Longitude": 3.3245113548031102, "Latitude": 51.1205087630061, "Proximus": true, "Orange": true, "Telenet": true }, "geometry": { "type": "Point", "coordinates": [ 76891.0, 201674.0 ] } },
{ "type": "Feature", "properties": { "Adres": "Bruggesteenweg 36 \/ Veldstraat 83", "Locatie": "", "PostcodeGemeente": "8760 Meulebeke", "Eigenaar1": "Telenet: _WV5647A", "Eigenaar2": "Orange Belgium: 336O1_1", "Eigenaar3": "Proximus: 51MAN_01", "X": 71218, "Y": 182866, "ID": 21509, "Longitude": 3.2475521191750101, "Latitude": 50.950718844484797, "Proximus": true, "Orange": true, "Telenet": true }, "geometry": { "type": "Point", "coordinates": [ 71218.0, 182866.0 ] } },
{ "type": "Feature", "properties": { "Adres": "Dokter Schweitzerplein 34", "Locatie": "Res. BEAUMONT", "PostcodeGemeente": "1082 Sint-Agatha-Berchem", "Eigenaar1": "Telenet: _BX3529A", "Eigenaar2": "Proximus: 02SAB_02", "Eigenaar3": null, "X": 144945, "Y": 172624, "ID": 21512, "Longitude": 4.2969192866509403, "Latitude": 50.863973332830703, "Proximus": true, "Orange": false, "Telenet": true }, "geometry": { "type": "Point", "coordinates": [ 144945.0, 172624.0 ] } },
{ "type": "Feature", "properties": { "Adres": "Martelarenplein 9", "Locatie": "Sint-Bartolomeuskerk", "PostcodeGemeente": "9800 Deinze", "Eigenaar1": "Telenet: _OV5101B", "Eigenaar2": "Orange Belgium: 219G1_1", "Eigenaar3": "Proximus: 91VNK_01", "X": 87603, "Y": 189006, "ID": 21513, "Longitude": 3.47966075559677, "Latitude": 51.007900712970503, "Proximus": true, "Orange": true, "Telenet": true }, "geometry": { "type": "Point", "coordinates": [ 87603.0, 189006.0 ] } },
{ "type": "Feature", "properties": { "Adres": "Georges Coornaertdreef", "Locatie": "Sportterreinen Desselgem", "PostcodeGemeente": "8792 Waregem", "Eigenaar1": "Telenet: _WV5830P", "Eigenaar2": "Orange Belgium: 140O1_1 \/ 2-30637-O1", "Eigenaar3": "Proximus: 56DES_00", "X": 78821, "Y": 175530, "ID": 21520, "Longitude": 3.3571607453195602, "Latitude": 50.885761722399998, "Proximus": true, "Orange": true, "Telenet": true }, "geometry": { "type": "Point", "coordinates": [ 78821.0, 175530.0 ] } },
{ "type": "Feature", "properties": { "Adres": "Luikersteenweg 228", "Locatie": "Federale Politie Hasselt", "PostcodeGemeente": "3500 Hasselt", "Eigenaar1": "Telenet: _LI2656A", "Eigenaar2": "Orange Belgium: 064H1_4", "Eigenaar3": "Proximus: 11HRW_01", "X": 218807, "Y": 179057, "ID": 21523, "Longitude": 5.3472411410557097, "Latitude": 50.9177438359009, "Proximus": true, "Orange": true, "Telenet": true }, "geometry": { "type": "Point", "coordinates": [ 218807.0, 179057.0 ] } },
{ "type": "Feature", "properties": { "Adres": "Flanders-Fieldweg 34", "Locatie": "", "PostcodeGemeente": "8790 Waregem", "Eigenaar1": "Telenet: _WV5698A", "Eigenaar2": "Proximus: 56WAM_00", "Eigenaar3": null, "X": 85060, "Y": 173880, "ID": 21534, "Longitude": 3.44610815963672, "Latitude": 50.871660943746399, "Proximus": true, "Orange": false, "Telenet": true }, "geometry": { "type": "Point", "coordinates": [ 85060.0, 173880.0 ] } },
{ "type": "Feature", "properties": { "Adres": "Aarschotsesteenweg 736", "Locatie": "Sint-Agathakerk", "PostcodeGemeente": "3012 Leuven", "Eigenaar1": "Telenet: _VB4052D", "Eigenaar2": "Orange Belgium: 099F1_4", "Eigenaar3": null, "X": 174968, "Y": 179871, "ID": 21541, "Longitude": 4.7238715668353901, "Latitude": 50.928602888109197, "Proximus": false, "Orange": true, "Telenet": true }, "geometry": { "type": "Point", "coordinates": [ 174968.0, 179871.0 ] } },
{ "type": "Feature", "properties": { "Adres": "Kerkplein \/ Kerkstraat 5", "Locatie": "Sint-Luciakerk", "PostcodeGemeente": "3130 Begijnendijk", "Eigenaar1": "Telenet: _VB4059A", "Eigenaar2": "Orange Belgium: 029F1_3", "Eigenaar3": "Proximus: 16BGD_00", "X": 179035, "Y": 190011, "ID": 21543, "Longitude": 4.7825247787487699, "Latitude": 51.019562047655, "Proximus": true, "Orange": true, "Telenet": true }, "geometry": { "type": "Point", "coordinates": [ 179035.0, 190011.0 ] } },
{ "type": "Feature", "properties": { "Adres": "Metsysstraat 8", "Locatie": "", "PostcodeGemeente": "1030 Schaarbeek", "Eigenaar1": "Telenet: _BX3289A", "Eigenaar2": "Orange Belgium: 239B1_1", "Eigenaar3": null, "X": 150567, "Y": 173060, "ID": 21547, "Longitude": 4.3767776414868296, "Latitude": 50.8679141975243, "Proximus": false, "Orange": true, "Telenet": true }, "geometry": { "type": "Point", "coordinates": [ 150567.0, 173060.0 ] } },
{ "type": "Feature", "properties": { "Adres": "Ter Linden 29", "Locatie": "Sporthal Hekers", "PostcodeGemeente": "9052 Gent", "Eigenaar1": "Telenet: _OV5236A", "Eigenaar2": "Orange Belgium: 135G1_1", "Eigenaar3": "Proximus: 91ZWD_00", "X": 103815, "Y": 188333, "ID": 21548, "Longitude": 3.7107281261994101, "Latitude": 51.0033692796327, "Proximus": true, "Orange": true, "Telenet": true }, "geometry": { "type": "Point", "coordinates": [ 103815.0, 188333.0 ] } },
{ "type": "Feature", "properties": { "Adres": "Grotewinkellaan 95", "Locatie": "Residentie Apollo", "PostcodeGemeente": "1853 Grimbergen", "Eigenaar1": "Telenet: _VB4200C", "Eigenaar2": "Orange Belgium: 40406F1_1", "Eigenaar3": "Proximus: 02STB_00", "X": 149478, "Y": 177681, "ID": 21552, "Longitude": 4.36130136205015, "Latitude": 50.909454209150297, "Proximus": true, "Orange": true, "Telenet": true }, "geometry": { "type": "Point", "coordinates": [ 149478.0, 177681.0 ] } },
{ "type": "Feature", "properties": { "Adres": "Secretaris Vanmarckelaan \/ De Linde", "Locatie": "Sportcentrum", "PostcodeGemeente": "8560 Wevelgem", "Eigenaar1": "Telenet: _WV5574P", "Eigenaar2": "Proximus: 56MSL_00", "Eigenaar3": null, "X": 65794, "Y": 170610, "ID": 21556, "Longitude": 3.1731825751653999, "Latitude": 50.8397982351241, "Proximus": true, "Orange": false, "Telenet": true }, "geometry": { "type": "Point", "coordinates": [ 65794.0, 170610.0 ] } },
{ "type": "Feature", "properties": { "Adres": "Kromfortstraat", "Locatie": "", "PostcodeGemeente": "8660 De Panne", "Eigenaar1": "Telenet: _WV5700A", "Eigenaar2": "Orange Belgium: 445O1_1", "Eigenaar3": "Proximus: 58ADI_00", "X": 26261, "Y": 196916, "ID": 21559, "Longitude": 2.6031982883479801, "Latitude": 51.069136121562202, "Proximus": true, "Orange": true, "Telenet": true }, "geometry": { "type": "Point", "coordinates": [ 26261.0, 196916.0 ] } },
{ "type": "Feature", "properties": { "Adres": "Dorpsstraat 1", "Locatie": "Kerk Sint-Laurentius", "PostcodeGemeente": "8650 Houthulst", "Eigenaar1": "Telenet: _WV5754A", "Eigenaar2": "Orange Belgium: 32404O1_1", "Eigenaar3": "Proximus: 51KLE_00", "X": 47158, "Y": 188480, "ID": 21560, "Longitude": 2.9036489849523002, "Latitude": 50.997409670779398, "Proximus": true, "Orange": true, "Telenet": true }, "geometry": { "type": "Point", "coordinates": [ 47158.0, 188480.0 ] } },
{ "type": "Feature", "properties": { "Adres": "Iddergemsesteenweg 71", "Locatie": "Wiljans Company NV", "PostcodeGemeente": "9450 Haaltert", "Eigenaar1": "Telenet: _OV5124A", "Eigenaar2": "Orange Belgium: 248G1_1", "Eigenaar3": "Proximus: 54DDE_00", "X": 126001, "Y": 174203, "ID": 21561, "Longitude": 4.0277284157791096, "Latitude": 50.8776950742511, "Proximus": true, "Orange": true, "Telenet": true }, "geometry": { "type": "Point", "coordinates": [ 126001.0, 174203.0 ] } },
{ "type": "Feature", "properties": { "Adres": "Terenburgseweg 1 \/ Obterrestraat 56", "Locatie": "", "PostcodeGemeente": "8972 Poperinge", "Eigenaar1": "Telenet: _WV5612B", "Eigenaar2": "Orange Belgium: 103O1_2", "Eigenaar3": "Proximus: 57PRO_00", "X": 29274, "Y": 177084, "ID": 21566, "Longitude": 2.6527119314785499, "Latitude": 50.891548200670798, "Proximus": true, "Orange": true, "Telenet": true }, "geometry": { "type": "Point", "coordinates": [ 29274.0, 177084.0 ] } },
{ "type": "Feature", "properties": { "Adres": "Wortegemplein", "Locatie": "Onze-Lieve-Vrouwkerk", "PostcodeGemeente": "9790 Wortegem-Petegem", "Eigenaar1": "Telenet: _OV5341A", "Eigenaar2": "Orange Belgium: 232G1_4", "Eigenaar3": "Proximus: 56WOR_00", "X": 89530, "Y": 171690, "ID": 21574, "Longitude": 3.50996818981606, "Latitude": 50.852457426145598, "Proximus": true, "Orange": true, "Telenet": true }, "geometry": { "type": "Point", "coordinates": [ 89530.0, 171690.0 ] } },
{ "type": "Feature", "properties": { "Adres": "Fran?ois Joseph Navezstraat \/ Fran?ois-Joseph Navezstraat", "Locatie": "", "PostcodeGemeente": "1000 Brussel \/ 1030 Schaarbeek", "Eigenaar1": "Telenet: _BX3134B", "Eigenaar2": "Orange Belgium: 142B1_1", "Eigenaar3": null, "X": 150317, "Y": 173548, "ID": 21576, "Longitude": 4.3732266752956104, "Latitude": 50.872301296481403, "Proximus": false, "Orange": true, "Telenet": true }, "geometry": { "type": "Point", "coordinates": [ 150317.0, 173548.0 ] } },
{ "type": "Feature", "properties": { "Adres": "Chauss?e de Tubize 65", "Locatie": "Sabiex", "PostcodeGemeente": "1420 Braine-l'Alleud", "Eigenaar1": "Telenet: _BW4521B", "Eigenaar2": "Orange Belgium: 40015W1_1", "Eigenaar3": "Proximus: 02MCP_00", "X": 149331, "Y": 154133, "ID": 21588, "Longitude": 4.35925213225216, "Latitude": 50.697767480406398, "Proximus": true, "Orange": true, "Telenet": true }, "geometry": { "type": "Point", "coordinates": [ 149331.0, 154133.0 ] } },
{ "type": "Feature", "properties": { "Adres": "Rue Wayez 35", "Locatie": "Hopitaux de Braine L'Alleud et de Waterloo", "PostcodeGemeente": "1420 Braine-l'Alleud", "Eigenaar1": "Telenet: _BW4527B", "Eigenaar2": null, "Eigenaar3": null, "X": 149931, "Y": 152723, "ID": 21589, "Longitude": 4.3677450265025, "Latitude": 50.6850922807647, "Proximus": false, "Orange": false, "Telenet": true }, "geometry": { "type": "Point", "coordinates": [ 149931.0, 152723.0 ] } },
{ "type": "Feature", "properties": { "Adres": "Rue Sainte-Renelde", "Locatie": "Ch?teau d'eau", "PostcodeGemeente": "1430 Rebecq", "Eigenaar1": "Telenet: _BW4536A", "Eigenaar2": "Orange Belgium: 072W1_1", "Eigenaar3": "Proximus: 67RBC_00", "X": 133582, "Y": 151805, "ID": 21590, "Longitude": 4.1364378742783501, "Latitude": 50.676609366663499, "Proximus": true, "Orange": true, "Telenet": true }, "geometry": { "type": "Point", "coordinates": [ 133582.0, 151805.0 ] } },
{ "type": "Feature", "properties": { "Adres": "Rue Barri?re Moye 24", "Locatie": "", "PostcodeGemeente": "1300 Wavre", "Eigenaar1": "Telenet: _BW4564E", "Eigenaar2": "Proximus: 10WAV_00", "Eigenaar3": null, "X": 167355, "Y": 155024, "ID": 21594, "Longitude": 4.6144124938473201, "Latitude": 50.705518751070002, "Proximus": true, "Orange": false, "Telenet": true }, "geometry": { "type": "Point", "coordinates": [ 167355.0, 155024.0 ] } },
{ "type": "Feature", "properties": { "Adres": "Chauss?e de Mont-Saint-Jean 128", "Locatie": "Caserne pompier", "PostcodeGemeente": "1420 Braine-l'Alleud", "Eigenaar1": "Telenet: _BW4572A", "Eigenaar2": null, "Eigenaar3": null, "X": 151878, "Y": 152840, "ID": 21596, "Longitude": 4.39529697783495, "Latitude": 50.686140878647699, "Proximus": false, "Orange": false, "Telenet": true }, "geometry": { "type": "Point", "coordinates": [ 151878.0, 152840.0 ] } },
{ "type": "Feature", "properties": { "Adres": "N25", "Locatie": "", "PostcodeGemeente": "1390 Grez-Doiceau", "Eigenaar1": "Telenet: _BW4578C", "Eigenaar2": "Orange Belgium: 156W1_5", "Eigenaar3": "Proximus: 10WAD_00", "X": 169538, "Y": 156916, "ID": 21597, "Longitude": 4.6454164465260899, "Latitude": 50.722458137505797, "Proximus": true, "Orange": true, "Telenet": true }, "geometry": { "type": "Point", "coordinates": [ 169538.0, 156916.0 ] } },
{ "type": "Feature", "properties": { "Adres": "Chauss?e de Namur 82", "Locatie": "", "PostcodeGemeente": "1320 Beauvechain", "Eigenaar1": "Telenet: _BW4579G", "Eigenaar2": "Orange Belgium: 202W1_5", "Eigenaar3": "Proximus: 10HMI_00", "X": 175551, "Y": 161809, "ID": 21598, "Longitude": 4.7309091103675804, "Latitude": 50.766211561659901, "Proximus": true, "Orange": true, "Telenet": true }, "geometry": { "type": "Point", "coordinates": [ 175551.0, 161809.0 ] } },
{ "type": "Feature", "properties": { "Adres": "Rue de Bruxelles 109", "Locatie": "", "PostcodeGemeente": "1480 Tubize", "Eigenaar1": "Telenet: _BW4612A", "Eigenaar2": null, "Eigenaar3": null, "X": 138724, "Y": 154329, "ID": 21601, "Longitude": 4.2091105083356997, "Latitude": 50.699421405751202, "Proximus": false, "Orange": false, "Telenet": true }, "geometry": { "type": "Point", "coordinates": [ 138724.0, 154329.0 ] } },
{ "type": "Feature", "properties": { "Adres": "Sint-Amandsesteenweg 131", "Locatie": "Watertoren", "PostcodeGemeente": "2880 Bornem", "Eigenaar1": "Telenet: _AN0170A", "Eigenaar2": "Orange Belgium: 066A1_1", "Eigenaar3": "Proximus: 03BON_00", "X": 140170, "Y": 197742, "ID": 21610, "Longitude": 4.2284202728671696, "Latitude": 51.089701166503801, "Proximus": true, "Orange": true, "Telenet": true }, "geometry": { "type": "Point", "coordinates": [ 140170.0, 197742.0 ] } },
{ "type": "Feature", "properties": { "Adres": "Laarbeeklaan 17", "Locatie": "Speedworld", "PostcodeGemeente": "1090 Jette", "Eigenaar1": "Telenet: _BX3091E", "Eigenaar2": "Orange Belgium: 105B1_3", "Eigenaar3": "Proximus: 02LEX_01", "X": 146285, "Y": 175062, "ID": 21619, "Longitude": 4.3159288197718002, "Latitude": 50.885899581053302, "Proximus": true, "Orange": true, "Telenet": true }, "geometry": { "type": "Point", "coordinates": [ 146285.0, 175062.0 ] } },
{ "type": "Feature", "properties": { "Adres": "Vrijheidslaan 81", "Locatie": "", "PostcodeGemeente": "1081 Koekelberg", "Eigenaar1": "Telenet: _BX3173B", "Eigenaar2": "Orange Belgium: 30023B1_3", "Eigenaar3": null, "X": 146828, "Y": 172424, "ID": 21623, "Longitude": 4.3236680090853001, "Latitude": 50.862188706357799, "Proximus": false, "Orange": true, "Telenet": true }, "geometry": { "type": "Point", "coordinates": [ 146828.0, 172424.0 ] } },
{ "type": "Feature", "properties": { "Adres": "Westrozebekestraat 36", "Locatie": "Watertoren", "PostcodeGemeente": "8980 Zonnebeke", "Eigenaar1": "Telenet: _WV5666B", "Eigenaar2": "Orange Belgium: 222O1_1", "Eigenaar3": "Proximus: 51PSD_00", "X": 55243, "Y": 178203, "ID": 21624, "Longitude": 3.0214567713156701, "Latitude": 50.906420750488898, "Proximus": true, "Orange": true, "Telenet": true }, "geometry": { "type": "Point", "coordinates": [ 55243.0, 178203.0 ] } },
{ "type": "Feature", "properties": { "Adres": "Vaartdijk \/ Kruineikestraat", "Locatie": "Hoogspanningspyloon", "PostcodeGemeente": "3150 Haacht", "Eigenaar1": "Telenet: _VB4355A", "Eigenaar2": "Orange Belgium: 064F1_2", "Eigenaar3": null, "X": 169293, "Y": 181964, "ID": 21625, "Longitude": 4.64326070714307, "Latitude": 50.9476338719954, "Proximus": false, "Orange": true, "Telenet": true }, "geometry": { "type": "Point", "coordinates": [ 169293.0, 181964.0 ] } },
{ "type": "Feature", "properties": { "Adres": "Werchtersesteenweg 4 \/ Kloosterstraat", "Locatie": "", "PostcodeGemeente": "3150 Haacht", "Eigenaar1": "Telenet: _VB4055A", "Eigenaar2": "Orange Belgium: 057F1_2", "Eigenaar3": "Proximus: 16HAC_00", "X": 168999, "Y": 184988, "ID": 21626, "Longitude": 4.6392341115267399, "Latitude": 50.974826709656597, "Proximus": true, "Orange": true, "Telenet": true }, "geometry": { "type": "Point", "coordinates": [ 168999.0, 184988.0 ] } },
{ "type": "Feature", "properties": { "Adres": "De Rooverelaan 22", "Locatie": "Station Gare de l'Ouest", "PostcodeGemeente": "1080 Sint-Jans-Molenbeek", "Eigenaar1": "Telenet: _BX3036A", "Eigenaar2": "Orange Belgium: 532B5_4", "Eigenaar3": "Proximus: 02WST_00", "X": 146615, "Y": 171003, "ID": 21637, "Longitude": 4.3206555633919299, "Latitude": 50.849413590332098, "Proximus": true, "Orange": true, "Telenet": true }, "geometry": { "type": "Point", "coordinates": [ 146615.0, 171003.0 ] } },
{ "type": "Feature", "properties": { "Adres": "Motstraat \/ Hasseltsesteenweg", "Locatie": "Voetbalplein KVK Beringen", "PostcodeGemeente": "3580 Beringen", "Eigenaar1": "Telenet: _LI2588D", "Eigenaar2": "Orange Belgium: 076H1_2", "Eigenaar3": "Proximus: 11BRC_01", "X": 210680, "Y": 193027, "ID": 21641, "Longitude": 5.2339931034813096, "Latitude": 51.044219673022702, "Proximus": true, "Orange": true, "Telenet": true }, "geometry": { "type": "Point", "coordinates": [ 210680.0, 193027.0 ] } },
{ "type": "Feature", "properties": { "Adres": "Senatorlaan 41", "Locatie": "", "PostcodeGemeente": "3201 Aarschot", "Eigenaar1": "Telenet: _VB4389P", "Eigenaar2": "Orange Belgium: 069F1_1", "Eigenaar3": "Proximus: 13WOL_01", "X": 188251, "Y": 191050, "ID": 21642, "Longitude": 4.9139739036417396, "Latitude": 51.028365851973803, "Proximus": true, "Orange": true, "Telenet": true }, "geometry": { "type": "Point", "coordinates": [ 188251.0, 191050.0 ] } },
{ "type": "Feature", "properties": { "Adres": "Beverststraat \/ Sint-Gertrudisplein", "Locatie": "Sint-Gertrudiskerk", "PostcodeGemeente": "3740 Bilzen", "Eigenaar1": "Telenet: _LI2644C", "Eigenaar2": "Orange Belgium: 30205H1_1", "Eigenaar3": "Proximus: 89BET_02", "X": 227762, "Y": 176266, "ID": 21645, "Longitude": 5.4739828323362598, "Latitude": 50.891526903144502, "Proximus": true, "Orange": true, "Telenet": true }, "geometry": { "type": "Point", "coordinates": [ 227762.0, 176266.0 ] } },
{ "type": "Feature", "properties": { "Adres": "Sint-Laurentiusplein", "Locatie": "Sint-Laurentiuskerk", "PostcodeGemeente": "8956 Heuvelland", "Eigenaar1": "Telenet: _WV5762A", "Eigenaar2": "Orange Belgium: 229O1_1", "Eigenaar3": null, "X": 41215, "Y": 164833, "ID": 21647, "Longitude": 2.82600844413862, "Latitude": 50.783800069707297, "Proximus": false, "Orange": true, "Telenet": true }, "geometry": { "type": "Point", "coordinates": [ 41215.0, 164833.0 ] } },
{ "type": "Feature", "properties": { "Adres": "Edingsesteenweg", "Locatie": "Sint-Petruskerk", "PostcodeGemeente": "9400 Ninove", "Eigenaar1": "Telenet: _OV5287J", "Eigenaar2": "Orange Belgium: 243G1_1", "Eigenaar3": "Proximus: 54DWK_00", "X": 125763, "Y": 165384, "ID": 21648, "Longitude": 4.0249264969712204, "Latitude": 50.798407682296599, "Proximus": true, "Orange": true, "Telenet": true }, "geometry": { "type": "Point", "coordinates": [ 125763.0, 165384.0 ] } },
{ "type": "Feature", "properties": { "Adres": "Hoogstraat", "Locatie": "Watertoren", "PostcodeGemeente": "3920 Lommel", "Eigenaar1": "Telenet: _LI2664A", "Eigenaar2": "Orange Belgium: 113H1_2", "Eigenaar3": "Proximus: 11LML_00", "X": 215882, "Y": 213097, "ID": 21651, "Longitude": 5.3118008627207498, "Latitude": 51.224038852897699, "Proximus": true, "Orange": true, "Telenet": true }, "geometry": { "type": "Point", "coordinates": [ 215882.0, 213097.0 ] } },
{ "type": "Feature", "properties": { "Adres": "Nukerkeplein", "Locatie": "Onze-Lieve-Vrouwkerk", "PostcodeGemeente": "9681 Maarkedal", "Eigenaar1": "Telenet: _OV5119A", "Eigenaar2": "Orange Belgium: 206G1_2", "Eigenaar3": "Proximus: 55MAA_00", "X": 95448, "Y": 165476, "ID": 21652, "Longitude": 3.5949246594109301, "Latitude": 50.797184593323102, "Proximus": true, "Orange": true, "Telenet": true }, "geometry": { "type": "Point", "coordinates": [ 95448.0, 165476.0 ] } },
{ "type": "Feature", "properties": { "Adres": "Sint-Jansstraat 7", "Locatie": "Voetbalveld Sint-Truiden Jeugdcomplex", "PostcodeGemeente": "3800 Sint-Truiden", "Eigenaar1": "Telenet: _LI2564A", "Eigenaar2": "Orange Belgium: 094H1_3", "Eigenaar3": "Proximus: 11STN_00", "X": 207740, "Y": 168183, "ID": 21653, "Longitude": 5.1881615157493703, "Latitude": 50.8212051638885, "Proximus": true, "Orange": true, "Telenet": true }, "geometry": { "type": "Point", "coordinates": [ 207740.0, 168183.0 ] } },
{ "type": "Feature", "properties": { "Adres": "Bodegemstraat", "Locatie": "Hoogspanningspyloon", "PostcodeGemeente": "1740 Ternat", "Eigenaar1": "Telenet: _VB4242M", "Eigenaar2": "Orange Belgium: 329F1_3", "Eigenaar3": null, "X": 137731, "Y": 172724, "ID": 21655, "Longitude": 4.1944448596013597, "Latitude": 50.864765184243801, "Proximus": false, "Orange": true, "Telenet": true }, "geometry": { "type": "Point", "coordinates": [ 137731.0, 172724.0 ] } },
{ "type": "Feature", "properties": { "Adres": "Albertlaan 44", "Locatie": "Heilig Hartcollege", "PostcodeGemeente": "3080 Tervuren", "Eigenaar1": "Telenet: _VB4145D", "Eigenaar2": "Orange Belgium: 077F1_5", "Eigenaar3": "Proximus: 02TVN_01", "X": 159552, "Y": 168727, "ID": 21656, "Longitude": 4.5043029232064304, "Latitude": 50.828884294660398, "Proximus": true, "Orange": true, "Telenet": true }, "geometry": { "type": "Point", "coordinates": [ 159552.0, 168727.0 ] } },
{ "type": "Feature", "properties": { "Adres": "Sint-Jansvliet \/ Frederik van Eedenplein", "Locatie": "Sint-Anna Tunnel (Rechteroever)", "PostcodeGemeente": "2000 Antwerpen \/ 2050 Antwerpen", "Eigenaar1": "Telenet: _AN8030A", "Eigenaar2": "Proximus: 03SAT_01", "Eigenaar3": null, "X": 151898, "Y": 212084, "ID": 21658, "Longitude": 4.3958911804502998, "Latitude": 51.218695429175597, "Proximus": true, "Orange": false, "Telenet": true }, "geometry": { "type": "Point", "coordinates": [ 151898.0, 212084.0 ] } },
{ "type": "Feature", "properties": { "Adres": "Slachterijstraat 127", "Locatie": "De Vleestuin", "PostcodeGemeente": "2260 Westerlo", "Eigenaar1": "Telenet: _AN0327B", "Eigenaar2": "Orange Belgium: 292A1_8", "Eigenaar3": "Proximus: 14ZPW_02", "X": 184967, "Y": 199551, "ID": 21662, "Longitude": 4.8679790295499696, "Latitude": 51.104986142452397, "Proximus": true, "Orange": true, "Telenet": true }, "geometry": { "type": "Point", "coordinates": [ 184967.0, 199551.0 ] } },
{ "type": "Feature", "properties": { "Adres": "Veldstraat 82", "Locatie": "", "PostcodeGemeente": "2491 Balen", "Eigenaar1": "Telenet: _AN0360G", "Eigenaar2": "Orange Belgium: 288A1_1", "Eigenaar3": "Proximus: 14BOL_01", "X": 204972, "Y": 202910, "ID": 21664, "Longitude": 5.1540978792657501, "Latitude": 51.1336213131883, "Proximus": true, "Orange": true, "Telenet": true }, "geometry": { "type": "Point", "coordinates": [ 204972.0, 202910.0 ] } },
{ "type": "Feature", "properties": { "Adres": "Grote Markt 80", "Locatie": "Sint-Pieterskerk", "PostcodeGemeente": "2300 Turnhout", "Eigenaar1": "Telenet: _AN0245D", "Eigenaar2": "Orange Belgium: 444A1_2", "Eigenaar3": "Proximus: 14GAS_01", "X": 190413, "Y": 223860, "ID": 21670, "Longitude": 4.9484458072568103, "Latitude": 51.323123161134497, "Proximus": true, "Orange": true, "Telenet": true }, "geometry": { "type": "Point", "coordinates": [ 190413.0, 223860.0 ] } },
{ "type": "Feature", "properties": { "Adres": "De Hueven \/ Leeuwerkstraat", "Locatie": "Watertoren", "PostcodeGemeente": "2360 Oud-Turnhout", "Eigenaar1": "Telenet: _AN0590E", "Eigenaar2": "Orange Belgium: 243A1_2", "Eigenaar3": "Proximus: 14OTN_01", "X": 192947, "Y": 226197, "ID": 21671, "Longitude": 4.98507276945295, "Latitude": 51.3439437703748, "Proximus": true, "Orange": true, "Telenet": true }, "geometry": { "type": "Point", "coordinates": [ 192947.0, 226197.0 ] } },
{ "type": "Feature", "properties": { "Adres": "de la Cr?testraat 26", "Locatie": "", "PostcodeGemeente": "7880 Vloesberg", "Eigenaar1": "Telenet: _HT1619B", "Eigenaar2": null, "Eigenaar3": null, "X": 105439, "Y": 158318, "ID": 21683, "Longitude": 3.7374981572829, "Latitude": 50.733688943556302, "Proximus": false, "Orange": false, "Telenet": true }, "geometry": { "type": "Point", "coordinates": [ 105439.0, 158318.0 ] } },
{ "type": "Feature", "properties": { "Adres": "Maastrichtersteenweg 21", "Locatie": "Politiezone Maasland", "PostcodeGemeente": "3680 Maaseik", "Eigenaar1": "Telenet: _LI2609C", "Eigenaar2": "Orange Belgium: C1-271-H1 & C1-30236-H1 & C1-40236-H1", "Eigenaar3": "Proximus: 89MIK_01", "X": 248828, "Y": 199346, "ID": 21693, "Longitude": 5.7795726166117403, "Latitude": 51.095755412846998, "Proximus": true, "Orange": true, "Telenet": true }, "geometry": { "type": "Point", "coordinates": [ 248828.0, 199346.0 ] } },
{ "type": "Feature", "properties": { "Adres": "Watertorenlaan \/ De Maneschijn", "Locatie": "Watertoren", "PostcodeGemeente": "2460 Kasterlee", "Eigenaar1": "Telenet: _AN0253C", "Eigenaar2": "Orange Belgium: 074A1_1", "Eigenaar3": "Proximus: 14KAT_03", "X": 192750, "Y": 214479, "ID": 21695, "Longitude": 4.9808578748673096, "Latitude": 51.238639269180901, "Proximus": true, "Orange": true, "Telenet": true }, "geometry": { "type": "Point", "coordinates": [ 192750.0, 214479.0 ] } },
{ "type": "Feature", "properties": { "Adres": "Rue de la Gare 135 \/ Chauss?e de Renaix 35", "Locatie": "SA SPILEERS", "PostcodeGemeente": "7910 Frasnes-lez-Anvaing", "Eigenaar1": "Telenet: _HT1620B", "Eigenaar2": "Orange Belgium: 1-32308-C1 \/ 308C1_1", "Eigenaar3": "Proximus: 69ANV_01", "X": 94200, "Y": 153614, "ID": 21702, "Longitude": 3.5790127097973001, "Latitude": 50.690436518551699, "Proximus": true, "Orange": true, "Telenet": true }, "geometry": { "type": "Point", "coordinates": [ 94200.0, 153614.0 ] } },
{ "type": "Feature", "properties": { "Adres": "Jacques Pasturlaan 43", "Locatie": "Clinique Institut Fond'Roy", "PostcodeGemeente": "1180 Ukkel", "Eigenaar1": "Telenet: _BX3081J", "Eigenaar2": "Orange Belgium: 103B1_7 \/ 30559B1_1", "Eigenaar3": "Proximus: 02PVO_03", "X": 149839, "Y": 163973, "ID": 21704, "Longitude": 4.3664392153710097, "Latitude": 50.786226753487099, "Proximus": true, "Orange": true, "Telenet": true }, "geometry": { "type": "Point", "coordinates": [ 149839.0, 163973.0 ] } },
{ "type": "Feature", "properties": { "Adres": "Houba de Strooperlaan 156", "Locatie": "BBL", "PostcodeGemeente": "1020 Brussel", "Eigenaar1": "Telenet: _BX3064C", "Eigenaar2": "Orange Belgium: 30880B1_3", "Eigenaar3": null, "X": 147743, "Y": 175486, "ID": 21724, "Longitude": 4.3366459779116697, "Latitude": 50.889718462518097, "Proximus": false, "Orange": true, "Telenet": true }, "geometry": { "type": "Point", "coordinates": [ 147743.0, 175486.0 ] } },
{ "type": "Feature", "properties": { "Adres": "Dorperheideweg 6 \/ Driepaalweg 21", "Locatie": "Sportzone Dorperberg", "PostcodeGemeente": "3680 Maaseik", "Eigenaar1": "Telenet: _LI2685B", "Eigenaar2": "Orange Belgium: 088H1_1", "Eigenaar3": "Proximus: 89OPO_00", "X": 240821, "Y": 195499, "ID": 21727, "Longitude": 5.6643320637697903, "Latitude": 51.062493427026297, "Proximus": true, "Orange": true, "Telenet": true }, "geometry": { "type": "Point", "coordinates": [ 240821.0, 195499.0 ] } },
{ "type": "Feature", "properties": { "Adres": "Lindenstraat 7", "Locatie": "Voetbalveld Engsbergen", "PostcodeGemeente": "3980 Tessenderlo", "Eigenaar1": "Telenet: _LI2621B", "Eigenaar2": "Orange Belgium: 141H1_1", "Eigenaar3": "Proximus: 13ENG_00", "X": 197530, "Y": 191630, "ID": 21728, "Longitude": 5.0463102721848001, "Latitude": 51.032891864826603, "Proximus": true, "Orange": true, "Telenet": true }, "geometry": { "type": "Point", "coordinates": [ 197530.0, 191630.0 ] } },
{ "type": "Feature", "properties": { "Adres": "Hollestraat 78", "Locatie": "Bemilcom Toren Everberg", "PostcodeGemeente": "3078 Kortenberg", "Eigenaar1": "Telenet: _VB4147F", "Eigenaar2": "Orange Belgium: 385F1_1", "Eigenaar3": "Proximus: 02EVH_01", "X": 164742, "Y": 173258, "ID": 21731, "Longitude": 4.5781508226514704, "Latitude": 50.869506737645303, "Proximus": true, "Orange": true, "Telenet": true }, "geometry": { "type": "Point", "coordinates": [ 164742.0, 173258.0 ] } },
{ "type": "Feature", "properties": { "Adres": "Montenakenstraat \/ Ambachtsweg", "Locatie": "", "PostcodeGemeente": "3890 Gingelom", "Eigenaar1": "Telenet: _LI2568A", "Eigenaar2": "Orange Belgium: 089H1_2", "Eigenaar3": null, "X": 203795, "Y": 158588, "ID": 21734, "Longitude": 5.1307800205966698, "Latitude": 50.735332376704797, "Proximus": false, "Orange": true, "Telenet": true }, "geometry": { "type": "Point", "coordinates": [ 203795.0, 158588.0 ] } },
{ "type": "Feature", "properties": { "Adres": "Amersveldestraat 162 \/ Slommestraat", "Locatie": "Shanks Vancoppenolle M.", "PostcodeGemeente": "8610 Kortemark", "Eigenaar1": "Telenet: _WV5991M", "Eigenaar2": "Orange Belgium: 231O1_1", "Eigenaar3": null, "X": 53584, "Y": 190004, "ID": 21752, "Longitude": 2.9947696079231401, "Latitude": 51.012210836295701, "Proximus": false, "Orange": true, "Telenet": true }, "geometry": { "type": "Point", "coordinates": [ 53584.0, 190004.0 ] } },
{ "type": "Feature", "properties": { "Adres": "Heiststeenweg 63", "Locatie": "Firma DPM", "PostcodeGemeente": "2580 Putte", "Eigenaar1": "Telenet: _AN0182B", "Eigenaar2": "Orange Belgium: 307A1_5", "Eigenaar3": "Proximus: 15BEZ_01", "X": 171584, "Y": 194557, "ID": 21761, "Longitude": 4.6766052033726204, "Latitude": 51.060751346694403, "Proximus": true, "Orange": true, "Telenet": true }, "geometry": { "type": "Point", "coordinates": [ 171584.0, 194557.0 ] } },
{ "type": "Feature", "properties": { "Adres": "Zeedijk 123", "Locatie": "Residentie Strand", "PostcodeGemeente": "8620 Nieuwpoort", "Eigenaar1": "Telenet: _WV5789A", "Eigenaar2": "Orange Belgium: 30562O1_1", "Eigenaar3": null, "X": 33679, "Y": 205139, "ID": 21764, "Longitude": 2.7063761386998899, "Latitude": 51.144570106546396, "Proximus": false, "Orange": true, "Telenet": true }, "geometry": { "type": "Point", "coordinates": [ 33679.0, 205139.0 ] } },
{ "type": "Feature", "properties": { "Adres": "Philipscauter 77 \/ Manhovestraat", "Locatie": "Watertoren", "PostcodeGemeente": "1541 Herne", "Eigenaar1": "Telenet: _VB4015A", "Eigenaar2": "Orange Belgium: 210F1_2", "Eigenaar3": "Proximus: 02SPK_00", "X": 122027, "Y": 153761, "ID": 21765, "Longitude": 3.9728116373993498, "Latitude": 50.693754448016897, "Proximus": true, "Orange": true, "Telenet": true }, "geometry": { "type": "Point", "coordinates": [ 122027.0, 153761.0 ] } },
{ "type": "Feature", "properties": { "Adres": "Chauss?e Romaine", "Locatie": "Ch?teau d'eau (Chemin de Faimes)", "PostcodeGemeente": "4300 Waremme", "Eigenaar1": "Telenet: _LG2048G", "Eigenaar2": "Orange Belgium: 008L1_1 \/ 1-008-L1", "Eigenaar3": null, "X": 212933, "Y": 153037, "ID": 21768, "Longitude": 5.2592734197917004, "Latitude": 50.684518360725001, "Proximus": false, "Orange": true, "Telenet": true }, "geometry": { "type": "Point", "coordinates": [ 212933.0, 153037.0 ] } },
{ "type": "Feature", "properties": { "Adres": "Rue des Quatre Abias", "Locatie": "", "PostcodeGemeente": "4300 Waremme", "Eigenaar1": "Telenet: _LG2049F", "Eigenaar2": "Proximus: 19WNO_00", "Eigenaar3": null, "X": 215199, "Y": 155380, "ID": 21769, "Longitude": 5.2917483692012297, "Latitude": 50.705331034583701, "Proximus": true, "Orange": false, "Telenet": true }, "geometry": { "type": "Point", "coordinates": [ 215199.0, 155380.0 ] } },
{ "type": "Feature", "properties": { "Adres": "Rue Chauss?e 58", "Locatie": "", "PostcodeGemeente": "4342 Awans", "Eigenaar1": "Telenet: _LG2053B", "Eigenaar2": null, "Eigenaar3": null, "X": 227237, "Y": 153213, "ID": 21770, "Longitude": 5.4616965878300299, "Latitude": 50.684381860692099, "Proximus": false, "Orange": false, "Telenet": true }, "geometry": { "type": "Point", "coordinates": [ 227237.0, 153213.0 ] } },
{ "type": "Feature", "properties": { "Adres": "Rue de Lantin", "Locatie": "", "PostcodeGemeente": "4000 Li?ge", "Eigenaar1": "Telenet: _LG2082B", "Eigenaar2": null, "Eigenaar3": null, "X": 233235, "Y": 152086, "ID": 21771, "Longitude": 5.54630711837574, "Latitude": 50.673426651479502, "Proximus": false, "Orange": false, "Telenet": true }, "geometry": { "type": "Point", "coordinates": [ 233235.0, 152086.0 ] } },
{ "type": "Feature", "properties": { "Adres": "Rue Jean Rey 2", "Locatie": "", "PostcodeGemeente": "4680 Oupeye", "Eigenaar1": "Telenet: _LG2148A", "Eigenaar2": "Orange Belgium: 1-30339-L1 \/ 191L1_3", "Eigenaar3": "Proximus: 41HRA_00", "X": 240791, "Y": 155919, "ID": 21780, "Longitude": 5.6541259854334598, "Latitude": 50.706752926604601, "Proximus": true, "Orange": true, "Telenet": true }, "geometry": { "type": "Point", "coordinates": [ 240791.0, 155919.0 ] } },
{ "type": "Feature", "properties": { "Adres": "Rue de la Wade", "Locatie": "Pyl?ne Coditel", "PostcodeGemeente": "4600 Vis?", "Eigenaar1": "Telenet: _LG2248D", "Eigenaar2": "Orange Belgium: 30705L1_1", "Eigenaar3": null, "X": 244056, "Y": 159347, "ID": 21796, "Longitude": 5.7012128226491097, "Latitude": 50.7370473659997, "Proximus": false, "Orange": true, "Telenet": true }, "geometry": { "type": "Point", "coordinates": [ 244056.0, 159347.0 ] } },
{ "type": "Feature", "properties": { "Adres": "Rue des Quatre Vents", "Locatie": "Ch?teau d'eau", "PostcodeGemeente": "4280 Hannut", "Eigenaar1": "Telenet: _LG2276B", "Eigenaar2": "Orange Belgium: 068L1_3", "Eigenaar3": null, "X": 204345, "Y": 152713, "ID": 21798, "Longitude": 5.1377082674898098, "Latitude": 50.682469135414799, "Proximus": false, "Orange": true, "Telenet": true }, "geometry": { "type": "Point", "coordinates": [ 204345.0, 152713.0 ] } },
{ "type": "Feature", "properties": { "Adres": "Rue du Centry", "Locatie": "", "PostcodeGemeente": "1390 Grez-Doiceau", "Eigenaar1": "Telenet: _BW4577P", "Eigenaar2": "Orange Belgium: 047W1_1", "Eigenaar3": "Proximus: 10GRE_00", "X": 171826, "Y": 158706, "ID": 21821, "Longitude": 4.6779243358430698, "Latitude": 50.738468314531602, "Proximus": true, "Orange": true, "Telenet": true }, "geometry": { "type": "Point", "coordinates": [ 171826.0, 158706.0 ] } },
{ "type": "Feature", "properties": { "Adres": "Europakruispunt 2 \/ Keizerslaan 11", "Locatie": "", "PostcodeGemeente": "1000 Brussel", "Eigenaar1": "Telenet: _BX3810A", "Eigenaar2": "Proximus: 02CSM_00", "Eigenaar3": null, "X": 149170, "Y": 170554, "ID": 21838, "Longitude": 4.3569377006404499, "Latitude": 50.845386405476802, "Proximus": true, "Orange": false, "Telenet": true }, "geometry": { "type": "Point", "coordinates": [ 149170.0, 170554.0 ] } },
{ "type": "Feature", "properties": { "Adres": "Woluwelaan", "Locatie": "Hoogspanningspyloon", "PostcodeGemeente": "1830 Machelen", "Eigenaar1": "Telenet: _VB4135F", "Eigenaar2": "Orange Belgium: 370F1_1", "Eigenaar3": "Proximus: 02VMA_00", "X": 154239, "Y": 177799, "ID": 21839, "Longitude": 4.4289959241011196, "Latitude": 50.910499450859596, "Proximus": true, "Orange": true, "Telenet": true }, "geometry": { "type": "Point", "coordinates": [ 154239.0, 177799.0 ] } },
{ "type": "Feature", "properties": { "Adres": "Grensstraat \/ E19", "Locatie": "Parking Peutie E19", "PostcodeGemeente": "1800 Vilvoorde \/ 1800 Vilvoorde", "Eigenaar1": "Telenet: _VB4174H", "Eigenaar2": "Orange Belgium: 374F1_2", "Eigenaar3": "Proximus: 02PEU_00", "X": 157372, "Y": 180627, "ID": 21840, "Longitude": 4.4735996762611903, "Latitude": 50.935889680191401, "Proximus": true, "Orange": true, "Telenet": true }, "geometry": { "type": "Point", "coordinates": [ 157372.0, 180627.0 ] } },
{ "type": "Feature", "properties": { "Adres": "Abdijstraat 40", "Locatie": "Abdijkerk van Tongerlo", "PostcodeGemeente": "2260 Westerlo", "Eigenaar1": "Telenet: _AN0142F", "Eigenaar2": "Orange Belgium: 291A1_1", "Eigenaar3": "Proximus: 14TON_02", "X": 187650, "Y": 199674, "ID": 21852, "Longitude": 4.9062979472057302, "Latitude": 51.105923186314499, "Proximus": true, "Orange": true, "Telenet": true }, "geometry": { "type": "Point", "coordinates": [ 187650.0, 199674.0 ] } },
{ "type": "Feature", "properties": { "Adres": "Vissersstraat", "Locatie": "Sint-Dionysiuskerk", "PostcodeGemeente": "8340 Damme", "Eigenaar1": "Telenet: _WV5756A", "Eigenaar2": "Orange Belgium: 075O1_2", "Eigenaar3": "Proximus: 50MRK_00", "X": 78118, "Y": 215601, "ID": 21853, "Longitude": 3.3392765232594299, "Latitude": 51.245833389336703, "Proximus": true, "Orange": true, "Telenet": true }, "geometry": { "type": "Point", "coordinates": [ 78118.0, 215601.0 ] } },
{ "type": "Feature", "properties": { "Adres": "Dorpsstraat 124", "Locatie": "Sint-Martinuskerk", "PostcodeGemeente": "8340 Damme", "Eigenaar1": "Telenet: _WV5636A", "Eigenaar2": "Orange Belgium: 092O1_3", "Eigenaar3": "Proximus: 50SIJ_00", "X": 76867, "Y": 210665, "ID": 21855, "Longitude": 3.32235898249963, "Latitude": 51.201313948765097, "Proximus": true, "Orange": true, "Telenet": true }, "geometry": { "type": "Point", "coordinates": [ 76867.0, 210665.0 ] } },
{ "type": "Feature", "properties": { "Adres": "Leuvensesteenweg 443", "Locatie": "", "PostcodeGemeente": "2812 Mechelen", "Eigenaar1": "Telenet: _AN0161D", "Eigenaar2": "Orange Belgium: 30978A1_3", "Eigenaar3": "Proximus: 15MZN_00", "X": 159490, "Y": 189244, "ID": 21857, "Longitude": 4.5039550392244099, "Latitude": 51.013318181763402, "Proximus": true, "Orange": true, "Telenet": true }, "geometry": { "type": "Point", "coordinates": [ 159490.0, 189244.0 ] } },
{ "type": "Feature", "properties": { "Adres": "Rue de Houtain", "Locatie": "", "PostcodeGemeente": "4458 Juprelle", "Eigenaar1": "Telenet: _LG2133B", "Eigenaar2": null, "Eigenaar3": null, "X": 235403, "Y": 158643, "ID": 21865, "Longitude": 5.5784860605415902, "Latitude": 50.732051792881897, "Proximus": false, "Orange": false, "Telenet": true }, "geometry": { "type": "Point", "coordinates": [ 235403.0, 158643.0 ] } },
{ "type": "Feature", "properties": { "Adres": "Rue W?rihet 44", "Locatie": "HV pylon", "PostcodeGemeente": "4020 Li?ge", "Eigenaar1": "Telenet: _LG2144Z", "Eigenaar2": null, "Eigenaar3": null, "X": 240923, "Y": 153009, "ID": 21866, "Longitude": 5.6552803797173299, "Latitude": 50.680575864371001, "Proximus": false, "Orange": false, "Telenet": true }, "geometry": { "type": "Point", "coordinates": [ 240923.0, 153009.0 ] } },
{ "type": "Feature", "properties": { "Adres": "Route d'Ohain", "Locatie": "Chateau d'eau", "PostcodeGemeente": "1332 Rixensart", "Eigenaar1": "Telenet: _BW4543A", "Eigenaar2": "Orange Belgium: 040W1_1", "Eigenaar3": "Proximus: 02ROH_01", "X": 158613, "Y": 156283, "ID": 21874, "Longitude": 4.4906837716618897, "Latitude": 50.717031932517898, "Proximus": true, "Orange": true, "Telenet": true }, "geometry": { "type": "Point", "coordinates": [ 158613.0, 156283.0 ] } },
{ "type": "Feature", "properties": { "Adres": "Edward Vlietinckstraat 17", "Locatie": "", "PostcodeGemeente": "8400 Oostende", "Eigenaar1": "Telenet: _WV5769E", "Eigenaar2": "Proximus: 59OKD_00", "Eigenaar3": null, "X": 50048, "Y": 211801, "ID": 21878, "Longitude": 2.9384095586901799, "Latitude": 51.207502932808097, "Proximus": true, "Orange": false, "Telenet": true }, "geometry": { "type": "Point", "coordinates": [ 50048.0, 211801.0 ] } },