{
"type": "FeatureCollection",
"crs": { "type": "name", "properties": { "name": "urn:ogc:def:crs:EPSG::31370" } },
"features": [
{ "type": "Feature", "properties": { "Adres": "Hogeschoolplein 5", "Locatie": "", "PostcodeGemeente": "3000 Leuven", "Eigenaar1": "Proximus: 16HGM_01", "Eigenaar2": null, "Eigenaar3": null, "X": 173415, "Y": 174143, "ID": 21479, "Longitude": 4.7014160826737497, "Latitude": 50.877177296370803, "Proximus": true, "Orange": false, "Telenet": false }, "geometry": { "type": "Point", "coordinates": [ 173415.0, 174143.0 ] } },
{ "type": "Feature", "properties": { "Adres": "Jan Stasstraat 16", "Locatie": "", "PostcodeGemeente": "3000 Leuven", "Eigenaar1": "Proximus: 16ERA_01", "Eigenaar2": null, "Eigenaar3": null, "X": 173822, "Y": 174428, "ID": 21540, "Longitude": 4.7072175513104897, "Latitude": 50.879722584676102, "Proximus": true, "Orange": false, "Telenet": false }, "geometry": { "type": "Point", "coordinates": [ 173822.0, 174428.0 ] } },
{ "type": "Feature", "properties": { "Adres": "Frederik Lintsstraat 33", "Locatie": "Rusthuis Edouard Remy", "PostcodeGemeente": "3000 Leuven", "Eigenaar1": "Telenet: _VB4399B", "Eigenaar2": "Orange Belgium: 119F1_2", "Eigenaar3": "Proximus: 16REM_00", "X": 173682, "Y": 173838, "ID": 1041, "Longitude": 4.7051902390706104, "Latitude": 50.874424652125803, "Proximus": true, "Orange": true, "Telenet": true }, "geometry": { "type": "Point", "coordinates": [ 173682.0, 173838.0 ] } },
{ "type": "Feature", "properties": { "Adres": "Bermpad", "Locatie": "", "PostcodeGemeente": "3012 Leuven", "Eigenaar1": "Proximus: 16LHE_04", "Eigenaar2": null, "Eigenaar3": null, "X": 173210, "Y": 176968, "ID": 1952, "Longitude": 4.6986821907886203, "Latitude": 50.902580225313798, "Proximus": true, "Orange": false, "Telenet": false }, "geometry": { "type": "Point", "coordinates": [ 173210.0, 176968.0 ] } },
{ "type": "Feature", "properties": { "Adres": "Molenbeekpad 55 \/ Holsbeeksesteenweg 55", "Locatie": "", "PostcodeGemeente": "3010 Leuven", "Eigenaar1": "Proximus: 16KSL_01", "Eigenaar2": null, "Eigenaar3": null, "X": 175192, "Y": 176097, "ID": 2210, "Longitude": 4.7267984763500897, "Latitude": 50.8946679019474, "Proximus": true, "Orange": false, "Telenet": false }, "geometry": { "type": "Point", "coordinates": [ 175192.0, 176097.0 ] } },
{ "type": "Feature", "properties": { "Adres": "Waversebaan 220", "Locatie": "Jezu&iuml;tenhuis", "PostcodeGemeente": "3001 Leuven", "Eigenaar1": "Telenet: _VB4348A", "Eigenaar2": "Orange Belgium: 240F1_1", "Eigenaar3": "Proximus: 16HEB_03", "X": 172354, "Y": 172100, "ID": 2431, "Longitude": 4.6862168453680804, "Latitude": 50.858853899861401, "Proximus": true, "Orange": true, "Telenet": true }, "geometry": { "type": "Point", "coordinates": [ 172354.0, 172100.0 ] } },
{ "type": "Feature", "properties": { "Adres": "Schorenshof 6", "Locatie": "", "PostcodeGemeente": "3012 Leuven", "Eigenaar1": "Telenet: _VB4048A", "Eigenaar2": "Proximus: 16WLS_03", "Eigenaar3": null, "X": 173298, "Y": 175786, "ID": 2437, "Longitude": 4.6998581189122097, "Latitude": 50.891951327752402, "Proximus": true, "Orange": false, "Telenet": true }, "geometry": { "type": "Point", "coordinates": [ 173298.0, 175786.0 ] } },
{ "type": "Feature", "properties": { "Adres": "Oudebaan", "Locatie": "Hoogspanningspyloon", "PostcodeGemeente": "3000 Leuven", "Eigenaar1": "Telenet: _VB4335A", "Eigenaar2": "Orange Belgium: 387F1_2", "Eigenaar3": "Proximus: 16YZB_01", "X": 176017, "Y": 172839, "ID": 2768, "Longitude": 4.7382938688575198, "Latitude": 50.865344450797203, "Proximus": true, "Orange": true, "Telenet": true }, "geometry": { "type": "Point", "coordinates": [ 176017.0, 172839.0 ] } },
{ "type": "Feature", "properties": { "Adres": "Karel van Lotharingenstraat 1 \/ Vismarkt 17", "Locatie": "", "PostcodeGemeente": "3000 Leuven", "Eigenaar1": "Telenet: _VB4216C", "Eigenaar2": "Orange Belgium: 381F1_1", "Eigenaar3": "Proximus: 16LEU_00", "X": 173266, "Y": 174706, "ID": 2963, "Longitude": 4.6993348940307396, "Latitude": 50.882244162248398, "Proximus": true, "Orange": true, "Telenet": true }, "geometry": { "type": "Point", "coordinates": [ 173266.0, 174706.0 ] } },
{ "type": "Feature", "properties": { "Adres": "Koning Albertplein 1", "Locatie": "", "PostcodeGemeente": "3010 Leuven", "Eigenaar1": "Telenet: _VB4179A", "Eigenaar2": "Orange Belgium: 049F1_2", "Eigenaar3": "Proximus: 16APK_01", "X": 175373, "Y": 174210, "ID": 3670, "Longitude": 4.7292407347759804, "Latitude": 50.877697313736199, "Proximus": true, "Orange": true, "Telenet": true }, "geometry": { "type": "Point", "coordinates": [ 175373.0, 174210.0 ] } },
{ "type": "Feature", "properties": { "Adres": "Groefplein 76", "Locatie": "Residentie Dijledal", "PostcodeGemeente": "3000 Leuven", "Eigenaar1": "Telenet: _VB4021A", "Eigenaar2": "Proximus: 16LEW_00", "Eigenaar3": null, "X": 172204, "Y": 174758, "ID": 3779, "Longitude": 4.6842469551056203, "Latitude": 50.882753223819101, "Proximus": true, "Orange": false, "Telenet": true }, "geometry": { "type": "Point", "coordinates": [ 172204.0, 174758.0 ] } },
{ "type": "Feature", "properties": { "Adres": "Maria Theresiastraat 117", "Locatie": "", "PostcodeGemeente": "3000 Leuven", "Eigenaar1": "Proximus: 16LES_00", "Eigenaar2": null, "Eigenaar3": null, "X": 174304, "Y": 174486, "ID": 3798, "Longitude": 4.7140701067340904, "Latitude": 50.880223971461398, "Proximus": true, "Orange": false, "Telenet": false }, "geometry": { "type": "Point", "coordinates": [ 174304.0, 174486.0 ] } },
{ "type": "Feature", "properties": { "Adres": "Waversebaan 68", "Locatie": "Sint-Lambertuskerk", "PostcodeGemeente": "3001 Leuven", "Eigenaar1": "Telenet: _VB4344A", "Eigenaar2": "Orange Belgium: 480F1_2", "Eigenaar3": "Proximus: 16HEC_03", "X": 172854, "Y": 172689, "ID": 3823, "Longitude": 4.6933548844153004, "Latitude": 50.864129071719901, "Proximus": true, "Orange": true, "Telenet": true }, "geometry": { "type": "Point", "coordinates": [ 172854.0, 172689.0 ] } },
{ "type": "Feature", "properties": { "Adres": "Philipssite 3 \/ Nieuwe Kerkhofdreef", "Locatie": "Philipsgebouw", "PostcodeGemeente": "3001 Leuven", "Eigenaar1": "Telenet: _VB4019B", "Eigenaar2": "Orange Belgium: 092F1_2", "Eigenaar3": "Proximus: 16LEP_01", "X": 174166, "Y": 173122, "ID": 4150, "Longitude": 4.7120194843781897, "Latitude": 50.867968320676198, "Proximus": true, "Orange": true, "Telenet": true }, "geometry": { "type": "Point", "coordinates": [ 174166.0, 173122.0 ] } },
{ "type": "Feature", "properties": { "Adres": "Gerard Vander Lindenstraat 9", "Locatie": "", "PostcodeGemeente": "3000 Leuven", "Eigenaar1": "Telenet: _VB4181J", "Eigenaar2": "Proximus: 16LEZ_00", "Eigenaar3": null, "X": 173542, "Y": 173216, "ID": 4270, "Longitude": 4.7031613337573699, "Latitude": 50.868839038845202, "Proximus": true, "Orange": false, "Telenet": true }, "geometry": { "type": "Point", "coordinates": [ 173542.0, 173216.0 ] } },
{ "type": "Feature", "properties": { "Adres": "Groeneweg 151", "Locatie": "Sociale Hogeschool Leuven", "PostcodeGemeente": "3001 Leuven", "Eigenaar1": "Telenet: _VB4176A", "Eigenaar2": "Orange Belgium: 30202F1_1", "Eigenaar3": "Proximus: 16GHB_00", "X": 170622, "Y": 174006, "ID": 4385, "Longitude": 4.6617243697825401, "Latitude": 50.876051628935599, "Proximus": true, "Orange": true, "Telenet": true }, "geometry": { "type": "Point", "coordinates": [ 170622.0, 174006.0 ] } },
{ "type": "Feature", "properties": { "Adres": "Kapucijnenvoer 122", "Locatie": "", "PostcodeGemeente": "3000 Leuven", "Eigenaar1": "Telenet: _VB4018C", "Eigenaar2": "Orange Belgium: 30167F1_1", "Eigenaar3": "Proximus: 16LEA_00", "X": 172650, "Y": 173665, "ID": 4711, "Longitude": 4.6905172133500601, "Latitude": 50.872910644483902, "Proximus": true, "Orange": true, "Telenet": true }, "geometry": { "type": "Point", "coordinates": [ 172650.0, 173665.0 ] } },
{ "type": "Feature", "properties": { "Adres": "L&eacute;on Schreursvest 15", "Locatie": "Residentie Schreursvest", "PostcodeGemeente": "3001 Leuven", "Eigenaar1": "Telenet: _VB4259A", "Eigenaar2": "Orange Belgium: 424F1_1", "Eigenaar3": "Proximus: 16LEO_00", "X": 174319, "Y": 173659, "ID": 4857, "Longitude": 4.7142284799715402, "Latitude": 50.872789222533598, "Proximus": true, "Orange": true, "Telenet": true }, "geometry": { "type": "Point", "coordinates": [ 174319.0, 173659.0 ] } },
{ "type": "Feature", "properties": { "Adres": "Spoorwegstraat 8", "Locatie": "", "PostcodeGemeente": "3020 Herent", "Eigenaar1": "Orange Belgium: 30200F1_1", "Eigenaar2": "Proximus: 16HER_00", "Eigenaar3": null, "X": 171254, "Y": 176939, "ID": 5154, "Longitude": 4.6708737498431399, "Latitude": 50.902394431694603, "Proximus": true, "Orange": true, "Telenet": false }, "geometry": { "type": "Point", "coordinates": [ 171254.0, 176939.0 ] } },
{ "type": "Feature", "properties": { "Adres": "Tervuursesteenweg 78", "Locatie": "Onbevlekt Hart Van Maria Kerk", "PostcodeGemeente": "3001 Leuven", "Eigenaar1": "Orange Belgium: 312F1_2", "Eigenaar2": "Proximus: 16LTS_03", "Eigenaar3": null, "X": 171796, "Y": 174010, "ID": 6549, "Longitude": 4.6784049990267897, "Latitude": 50.876044667900899, "Proximus": true, "Orange": true, "Telenet": false }, "geometry": { "type": "Point", "coordinates": [ 171796.0, 174010.0 ] } },
{ "type": "Feature", "properties": { "Adres": "Kapucijnenvoer 33", "Locatie": "Ziekenhuis Sint-Rafa&euml;l", "PostcodeGemeente": "3000 Leuven", "Eigenaar1": "Proximus: 16RAF_01", "Eigenaar2": null, "Eigenaar3": null, "X": 172808, "Y": 174206, "ID": 6676, "Longitude": 4.6927955944869604, "Latitude": 50.8777676852241, "Proximus": true, "Orange": false, "Telenet": false }, "geometry": { "type": "Point", "coordinates": [ 172808.0, 174206.0 ] } },
{ "type": "Feature", "properties": { "Adres": "Vaartkom 18", "Locatie": "Brouwerij Stella Artois", "PostcodeGemeente": "3000 Leuven", "Eigenaar1": "Proximus: 16STE_00", "Eigenaar2": null, "Eigenaar3": null, "X": 173618, "Y": 175230, "ID": 6868, "Longitude": 4.7043703362114799, "Latitude": 50.886940354655898, "Proximus": true, "Orange": false, "Telenet": false }, "geometry": { "type": "Point", "coordinates": [ 173618.0, 175230.0 ] } },
{ "type": "Feature", "properties": { "Adres": "Tervuursestraat 167", "Locatie": "", "PostcodeGemeente": "3000 Leuven", "Eigenaar1": "Proximus: 16JEP_01", "Eigenaar2": null, "Eigenaar3": null, "X": 172218, "Y": 174132, "ID": 6953, "Longitude": 4.6844081263593598, "Latitude": 50.877125449602701, "Proximus": true, "Orange": false, "Telenet": false }, "geometry": { "type": "Point", "coordinates": [ 172218.0, 174132.0 ] } },
{ "type": "Feature", "properties": { "Adres": "Naamsestraat 16", "Locatie": "", "PostcodeGemeente": "3000 Leuven", "Eigenaar1": "Orange Belgium: 150F1_5", "Eigenaar2": "Proximus: 16LNA_01", "Eigenaar3": null, "X": 173357, "Y": 174281, "ID": 7058, "Longitude": 4.7006007938266903, "Latitude": 50.878420162486997, "Proximus": true, "Orange": true, "Telenet": false }, "geometry": { "type": "Point", "coordinates": [ 173357.0, 174281.0 ] } },
{ "type": "Feature", "properties": { "Adres": "Mechelsesteenweg \/ Nieuwe Mechelsesteenweg", "Locatie": "Carpoolparking Herent", "PostcodeGemeente": "3012 Leuven \/ 3000 Leuven", "Eigenaar1": "Orange Belgium: 366F1_1", "Eigenaar2": "Proximus: 16LMS_01", "Eigenaar3": null, "X": 172539, "Y": 175989, "ID": 7078, "Longitude": 4.6890830046197802, "Latitude": 50.893806154548002, "Proximus": true, "Orange": true, "Telenet": false }, "geometry": { "type": "Point", "coordinates": [ 172539.0, 175989.0 ] } },
{ "type": "Feature", "properties": { "Adres": "Vriesenhof 5", "Locatie": "Residentie Dageraad", "PostcodeGemeente": "3000 Leuven", "Eigenaar1": "Telenet: _VB4267B", "Eigenaar2": "Orange Belgium: 233F1_4", "Eigenaar3": "Proximus: 16LBS_01", "X": 172755, "Y": 174663, "ID": 7139, "Longitude": 4.6920709494338597, "Latitude": 50.881877887290102, "Proximus": true, "Orange": true, "Telenet": true }, "geometry": { "type": "Point", "coordinates": [ 172755.0, 174663.0 ] } },
{ "type": "Feature", "properties": { "Adres": "Tiensesteenweg 190", "Locatie": "Sint-Franciscuskerk", "PostcodeGemeente": "3010 Leuven", "Eigenaar1": "Orange Belgium: 30491F1_1", "Eigenaar2": "Proximus: 16KEL_02", "Eigenaar3": null, "X": 174970, "Y": 173506, "ID": 7882, "Longitude": 4.7234668573104504, "Latitude": 50.871386224705098, "Proximus": true, "Orange": true, "Telenet": false }, "geometry": { "type": "Point", "coordinates": [ 174970.0, 173506.0 ] } },
{ "type": "Feature", "properties": { "Adres": "Vaartkom 1", "Locatie": "Inbev", "PostcodeGemeente": "3000 Leuven", "Eigenaar1": "Orange Belgium: C1-530-F3", "Eigenaar2": "Proximus: 16IBP_01", "Eigenaar3": null, "X": 173779, "Y": 175250, "ID": 9118, "Longitude": 4.7066598047733601, "Latitude": 50.887113604252598, "Proximus": true, "Orange": true, "Telenet": false }, "geometry": { "type": "Point", "coordinates": [ 173779.0, 175250.0 ] } },
{ "type": "Feature", "properties": { "Adres": "Oude Markt 39", "Locatie": "Caf&eacute; CADI", "PostcodeGemeente": "3000 Leuven", "Eigenaar1": "Proximus: 16OMH_00", "Eigenaar2": null, "Eigenaar3": null, "X": 173249, "Y": 174237, "ID": 9231, "Longitude": 4.6990634403892404, "Latitude": 50.878028911411199, "Proximus": true, "Orange": false, "Telenet": false }, "geometry": { "type": "Point", "coordinates": [ 173249.0, 174237.0 ] } },
{ "type": "Feature", "properties": { "Adres": "Tiensestraat 8", "Locatie": "", "PostcodeGemeente": "3000 Leuven", "Eigenaar1": "Proximus: 16TIM_00", "Eigenaar2": null, "Eigenaar3": null, "X": 173533, "Y": 174305, "ID": 9373, "Longitude": 4.7031032114059697, "Latitude": 50.878628678466697, "Proximus": true, "Orange": false, "Telenet": false }, "geometry": { "type": "Point", "coordinates": [ 173533.0, 174305.0 ] } },
{ "type": "Feature", "properties": { "Adres": "Koning Boudewijnlaan \/ Koning Boudewijnlaan", "Locatie": "Leuven Wetenschapspark Arenberg", "PostcodeGemeente": "3001 Leuven", "Eigenaar1": "Proximus: 16LWA_02", "Eigenaar2": null, "Eigenaar3": null, "X": 171064, "Y": 172792, "ID": 9857, "Longitude": 4.6679347265082098, "Latitude": 50.865122784958999, "Proximus": true, "Orange": false, "Telenet": false }, "geometry": { "type": "Point", "coordinates": [ 171064.0, 172792.0 ] } },
{ "type": "Feature", "properties": { "Adres": "Mathieu de Layensplein 5 \/ Pensstraat", "Locatie": "Taverne Cafe Foyer", "PostcodeGemeente": "3000 Leuven", "Eigenaar1": "Proximus: 16LAM_00", "Eigenaar2": null, "Eigenaar3": null, "X": 173311, "Y": 174435, "ID": 9949, "Longitude": 4.6999571094017396, "Latitude": 50.879806290281898, "Proximus": true, "Orange": false, "Telenet": false }, "geometry": { "type": "Point", "coordinates": [ 173311.0, 174435.0 ] } },
{ "type": "Feature", "properties": { "Adres": "Herestraat 53", "Locatie": "LEMMENSINSTITUUT", "PostcodeGemeente": "3000 Leuven", "Eigenaar1": "Proximus: 16LEM_01_20120801", "Eigenaar2": null, "Eigenaar3": null, "X": 171918, "Y": 174657, "ID": 19613, "Longitude": 4.6801769126746704, "Latitude": 50.881856193076601, "Proximus": true, "Orange": false, "Telenet": false }, "geometry": { "type": "Point", "coordinates": [ 171918.0, 174657.0 ] } },
{ "type": "Feature", "properties": { "Adres": "Kapeldreef 75", "Locatie": "", "PostcodeGemeente": "3001 Leuven", "Eigenaar1": "Proximus: 16IMC_01", "Eigenaar2": null, "Eigenaar3": null, "X": 171855, "Y": 172917, "ID": 19532, "Longitude": 4.6791781073910004, "Latitude": 50.866217216739699, "Proximus": true, "Orange": false, "Telenet": false }, "geometry": { "type": "Point", "coordinates": [ 171855.0, 172917.0 ] } },
{ "type": "Feature", "properties": { "Adres": "Herestraat 49", "Locatie": "UZ LEUVEN", "PostcodeGemeente": "3000 Leuven", "Eigenaar1": "Telenet: _VB4369A", "Eigenaar2": "Orange Belgium: 1-32087-F1", "Eigenaar3": "Proximus: 16KUL_01", "X": 171260, "Y": 174409, "ID": 24054, "Longitude": 4.6708124387483503, "Latitude": 50.879651308534399, "Proximus": true, "Orange": true, "Telenet": true }, "geometry": { "type": "Point", "coordinates": [ 171260.0, 174409.0 ] } }
]
}
